[{"id":9912,"name":"Golden Gate National Recreation Area","lat":37.7785515673,"lon":-122.5507087159,"rank":1,"num":9333},{"id":3730,"name":"Santa Monica Mountains National Recreation Area","lat":34.0976714409,"lon":-118.771017313,"rank":3,"num":7168},{"id":4504,"name":"Death Valley National Park","lat":36.4838985555,"lon":-117.1325935498,"rank":8,"num":2641},{"id":3680,"name":"Joshua Tree National Park","lat":33.9139692648,"lon":-115.8397560616,"rank":9,"num":2608},{"id":72639,"name":"Cuyahoga Valley National Park","lat":41.2591064186,"lon":-81.570912662,"rank":2,"num":7960},{"id":5737,"name":"Pinnacles National Park","lat":36.4903927982,"lon":-121.1811665164,"rank":7,"num":3131},{"id":97447,"name":"Presidio of San Francisco","lat":37.7970471643,"lon":-122.4671242116,"rank":12,"num":2004},{"id":5781,"name":"Point Reyes National Seashore","lat":38.0550606614,"lon":-122.8797850842,"rank":5,"num":3185},{"id":4715,"name":"Cabrillo National Monument","lat":32.6701200237,"lon":-117.2428532785,"rank":4,"num":3195},{"id":3958,"name":"Mojave National Preserve","lat":35.1242050993,"lon":-115.5168129904,"rank":15,"num":1472},{"id":95269,"name":"Lake Mead National Recreation Area","lat":35.9436983441,"lon":-114.4805914667,"rank":24,"num":1084},{"id":72645,"name":"Great Smoky Mountains National Park","lat":35.6005555209,"lon":-83.5085153151,"rank":6,"num":3143},{"id":97467,"name":"Rock Creek Park","lat":38.9512403375,"lon":-77.0500309763,"rank":11,"num":2146},{"id":95223,"name":"Gulf Islands National Seashore","lat":30.2991818506,"lon":-87.7507640686,"rank":19,"num":1155},{"id":65739,"name":"Saguaro National Park","lat":32.2093035404,"lon":-110.7576691175,"rank":31,"num":960},{"id":54005,"name":"Jean Lafitte National Historical Park and Preserve","lat":29.817211404,"lon":-90.1399622266,"rank":56,"num":502},{"id":97463,"name":"Chesapeake and Ohio Canal National Historical Park","lat":39.3897702957,"lon":-77.8962200537,"rank":18,"num":1223},{"id":95274,"name":"Lewis and Clark National Historical Park","lat":46.2082154637,"lon":-123.9628909917,"rank":21,"num":1142},{"id":97430,"name":"Illinois and Michigan Canal National Heritage Corridor","lat":41.4460491912,"lon":-88.4032810981,"rank":32,"num":956},{"id":95295,"name":"Organ Pipe Cactus National Monument","lat":32.0357154887,"lon":-112.8572812695,"rank":62,"num":422},{"id":4518,"name":"Whiskeytown-Shasta-Trinity National Recreation Area","lat":40.6135812591,"lon":-122.6022604132,"rank":76,"num":291},{"id":53957,"name":"Everglades National Park","lat":25.3721678198,"lon":-80.8818228286,"rank":55,"num":555},{"id":95303,"name":"San Antonio Missions National Historical Park","lat":29.3125297711,"lon":-98.4288447764,"rank":85,"num":262},{"id":97443,"name":"Constitution Gardens","lat":38.890937261,"lon":-77.0442651043,"rank":53,"num":591},{"id":95342,"name":"War in the Pacific National Historic Park","lat":13.4386958941,"lon":144.6924031856,"rank":91,"num":219},{"id":57573,"name":"Petrified Forest National Park","lat":34.9836910181,"lon":-109.7877892252,"rank":35,"num":915},{"id":3157,"name":"Channel Islands National Park","lat":33.9867131515,"lon":-119.9113246962,"rank":49,"num":650},{"id":53620,"name":"Congaree National Park","lat":33.791640292,"lon":-80.7477607445,"rank":17,"num":1292},{"id":69314,"name":"Gateway National Recreation Area","lat":40.5717206258,"lon":-73.9096912774,"rank":14,"num":1514},{"id":95138,"name":"Chickamauga and Chattanooga National Military Park","lat":34.9431398394,"lon":-85.2874777435,"rank":103,"num":176},{"id":63837,"name":"Fort Bowie National Historic Site","lat":32.149252772,"lon":-109.4511217875,"rank":108,"num":165},{"id":56788,"name":"Haleakala National Park","lat":20.7069255007,"lon":-156.159192095,"rank":104,"num":176},{"id":95207,"name":"Natchez Trace Parkway and National Scenic Trail","lat":33.7891261443,"lon":-89.0208395822,"rank":94,"num":205},{"id":9012,"name":"Shenandoah National Park","lat":38.4917866995,"lon":-78.4691065347,"rank":50,"num":650},{"id":97425,"name":"George Washington Memorial Parkway","lat":38.8622391228,"lon":-77.0919610922,"rank":26,"num":1059},{"id":68542,"name":"Yosemite National Park","lat":37.8483345604,"lon":-119.5569911426,"rank":16,"num":1306},{"id":95241,"name":"Indiana Dunes National Lakeshore","lat":41.639358968,"lon":-87.0941192641,"rank":23,"num":1127},{"id":53642,"name":"Arches National Park","lat":38.722541281,"lon":-109.5863548625,"rank":70,"num":317},{"id":56772,"name":"Craters of the Moon National Monument","lat":43.2023634474,"lon":-113.4788680289,"rank":110,"num":162},{"id":55121,"name":"Marsh-Billings-Rockefeller National Historical Park","lat":43.633420268,"lon":-72.5348094169,"rank":40,"num":809},{"id":95122,"name":"Buffalo National River","lat":36.0410895733,"lon":-92.9077759894,"rank":126,"num":116},{"id":69094,"name":"Olympic National Park","lat":47.8032404172,"lon":-123.666118523,"rank":33,"num":940},{"id":53613,"name":"Chiricahua National Monument","lat":32.0121418881,"lon":-109.3416124212,"rank":78,"num":287},{"id":63599,"name":"Bandelier National Monument","lat":35.7789082603,"lon":-106.3317686727,"rank":20,"num":1144},{"id":6021,"name":"Redwood National Park","lat":41.3712006553,"lon":-124.0316415825,"rank":90,"num":226},{"id":95110,"name":"Big Thicket National Preserve","lat":30.4231828562,"lon":-94.3385322002,"rank":86,"num":259},{"id":97400,"name":"National Mall and Memorial Parks","lat":38.8824418942,"lon":-77.0336705321,"rank":44,"num":741},{"id":72641,"name":"Delaware Water Gap National Recreation Area","lat":41.1264863442,"lon":-74.9482639545,"rank":118,"num":135},{"id":97419,"name":"Sequoia and Kings Canyon National Parks","lat":36.7117180537,"lon":-118.5873773561,"rank":52,"num":611},{"id":72794,"name":"Wind Cave National Park","lat":43.5800613892,"lon":-103.4394556948,"rank":41,"num":802},{"id":95321,"name":"Sequoia National Park","lat":36.5076910152,"lon":-118.5752170554,"rank":57,"num":496},{"id":10211,"name":"Yellowstone National Park","lat":44.596413865,"lon":-110.5471101058,"rank":36,"num":908},{"id":78789,"name":"San Juan Island National Historical Park","lat":48.5120013827,"lon":-123.0605569798,"rank":93,"num":205},{"id":95097,"name":"Appalachian National Scenic Trail","lat":40.1611451656,"lon":-76.6533554369,"rank":28,"num":1012},{"id":97471,"name":"Dyke Marsh","lat":38.7662419291,"lon":-77.0482292755,"rank":54,"num":572},{"id":95325,"name":"Sitka National Historical Park","lat":57.0471863297,"lon":-135.3156888306,"rank":133,"num":102},{"id":95129,"name":"Cesar E. Chavez National Monument","lat":35.2272951624,"lon":-118.5615902748,"rank":141,"num":76},{"id":95300,"name":"Padre Island National Seashore","lat":27.0527813503,"lon":-97.3590170694,"rank":111,"num":157},{"id":97442,"name":"Theodore Roosevelt Island National Memorial","lat":38.8958414917,"lon":-77.0624191432,"rank":58,"num":493},{"id":7222,"name":"Hawaii Volcanoes National Park","lat":19.3394958866,"lon":-155.4640594098,"rank":117,"num":141},{"id":72841,"name":"Glacier National Park","lat":48.6831858383,"lon":-113.8001746078,"rank":30,"num":989},{"id":72896,"name":"Weir Farm National Historic Site","lat":41.2588243731,"lon":-73.4545397628,"rank":22,"num":1133},{"id":5603,"name":"Muir Woods National Monument","lat":37.8965802252,"lon":-122.5808038046,"rank":130,"num":106},{"id":95113,"name":"Blue Ridge Parkway","lat":36.5518826019,"lon":-80.9985939398,"rank":37,"num":901},{"id":82851,"name":"Pipestone National Monument","lat":44.0137418986,"lon":-96.3242589341,"rank":63,"num":397},{"id":95211,"name":"Upper Delaware Scenic and Recreational River","lat":41.6610604903,"lon":-75.0382845906,"rank":83,"num":267},{"id":97469,"name":"National Capital Parks-East","lat":38.9008042255,"lon":-76.932670758,"rank":115,"num":151},{"id":97444,"name":"National Mall","lat":38.8898607572,"lon":-77.0227800773,"rank":97,"num":189},{"id":63840,"name":"Coronado National Memorial","lat":31.3490049175,"lon":-110.2561542921,"rank":107,"num":166},{"id":5330,"name":"John Muir National Historic Site","lat":37.9828464717,"lon":-122.1326154731,"rank":42,"num":767},{"id":56706,"name":"Hot Springs National Park","lat":34.5241367423,"lon":-93.0633313493,"rank":80,"num":285},{"id":69216,"name":"Grand Canyon National Park","lat":36.1721460932,"lon":-112.6845881638,"rank":99,"num":186},{"id":95330,"name":"Tallgrass Prairie National Preserve","lat":38.4402570818,"lon":-96.5672295863,"rank":146,"num":72},{"id":95205,"name":"Homestead National Monument","lat":40.2880229314,"lon":-96.8338682633,"rank":61,"num":441},{"id":95164,"name":"Dinosaur National Monument","lat":40.5072731043,"lon":-108.9332657008,"rank":106,"num":168},{"id":95153,"name":"Mississippi National River and Recreation Area","lat":44.873941451,"lon":-93.0464523057,"rank":114,"num":153},{"id":95336,"name":"Virgin Islands National Park","lat":18.3427954307,"lon":-64.7419329315,"rank":121,"num":126},{"id":62831,"name":"Assateague Island National Seashore","lat":38.0556055751,"lon":-75.2453859363,"rank":123,"num":121},{"id":97439,"name":"Lower Saint Croix National Scenic Riverway","lat":45.2381187113,"lon":-92.741494233,"rank":73,"num":306},{"id":69313,"name":"Guadalupe Mountains National Park","lat":31.9229932368,"lon":-104.8855426713,"rank":120,"num":128},{"id":95317,"name":"Tumacacori National Historical Park","lat":31.5611843555,"lon":-111.0385102554,"rank":48,"num":661},{"id":97465,"name":"Piscataway Park","lat":38.6867983763,"lon":-77.0665996918,"rank":25,"num":1083},{"id":95264,"name":"Klondike Gold Rush National Historical Park","lat":59.6103034399,"lon":-135.261881525,"rank":164,"num":35},{"id":95108,"name":"Biscayne National Park","lat":25.4904982522,"lon":-80.2102497024,"rank":100,"num":182},{"id":55071,"name":"Big Bend National Park","lat":29.2977770156,"lon":-103.2298548718,"rank":59,"num":488},{"id":97435,"name":"North Cascades National Park Service Complex","lat":48.6902198473,"lon":-121.140030848,"rank":29,"num":991},{"id":97464,"name":"Kenilworth Park and Aquatic Gardens","lat":38.9087197848,"lon":-76.9490728374,"rank":27,"num":1047},{"id":95309,"name":"Saint-Gaudens National Historic Site","lat":43.4991783139,"lon":-72.3745189677,"rank":79,"num":285},{"id":50634,"name":"Zion National Park","lat":37.2982228432,"lon":-113.0264472831,"rank":69,"num":320},{"id":73645,"name":"National Park of American Samoa","lat":-14.2449488354,"lon":-169.926539672,"rank":119,"num":135},{"id":8838,"name":"Mount Rainier National Park","lat":46.860920063,"lon":-121.7056276725,"rank":38,"num":842},{"id":97426,"name":"Harpers Ferry National Historical Park","lat":39.3186397329,"lon":-77.7408618164,"rank":64,"num":381},{"id":95130,"name":"Canaveral National Seashore","lat":28.7862735358,"lon":-80.754145444,"rank":132,"num":103},{"id":95125,"name":"Cape Hatteras National Seashore","lat":35.4734085535,"lon":-75.6164706884,"rank":148,"num":66},{"id":95341,"name":"Walnut Canyon National Monument","lat":35.1682147391,"lon":-111.5024149867,"rank":168,"num":33},{"id":97411,"name":"Fort Dupont Park","lat":38.8775280847,"lon":-76.9496513207,"rank":144,"num":73},{"id":95170,"name":"Fort Point National Historic Site","lat":37.8083796094,"lon":-122.4737002227,"rank":161,"num":40},{"id":95106,"name":"Big Cypress National Preserve","lat":25.9704302921,"lon":-81.0811506057,"rank":129,"num":109},{"id":97441,"name":"Manassas National Battlefield Park","lat":38.8171433919,"lon":-77.5352993448,"rank":47,"num":686},{"id":95193,"name":"Fort Vancouver National Historic Site","lat":45.6224585953,"lon":-122.6617026552,"rank":95,"num":201},{"id":97468,"name":"Prince William Forest Park","lat":38.585882854,"lon":-77.3891083762,"rank":68,"num":323},{"id":95144,"name":"Charles Pinckney National Historic Site","lat":32.845773909,"lon":-79.8248758227,"rank":82,"num":270},{"id":62621,"name":"White Sands National Monument","lat":32.7790275431,"lon":-106.333358958,"rank":171,"num":28},{"id":95326,"name":"Sleeping Bear Dunes National Lakeshore","lat":44.9278759949,"lon":-86.0270783068,"rank":109,"num":164},{"id":97409,"name":"Catoctin Mountain Park","lat":39.6506854958,"lon":-77.4641646197,"rank":46,"num":711},{"id":95191,"name":"Fort Sumter National Monument","lat":32.7565442532,"lon":-79.8707089791,"rank":98,"num":188},{"id":70571,"name":"Dry Tortugas National Park","lat":24.6488287579,"lon":-82.8717701235,"rank":149,"num":65},{"id":95181,"name":"Tuzigoot National Monument","lat":34.7729575509,"lon":-112.0279092783,"rank":159,"num":43},{"id":95280,"name":"Morristown National Historical Park","lat":40.7652335569,"lon":-74.534572715,"rank":184,"num":23},{"id":95109,"name":"Big South Fork National River and Recreation Area","lat":36.5346688487,"lon":-84.6651192133,"rank":180,"num":24},{"id":95155,"name":"Montezuma Castle National Monument","lat":34.6223894456,"lon":-111.8147416629,"rank":150,"num":63},{"id":72792,"name":"Badlands National Park","lat":43.6854402012,"lon":-102.4832364387,"rank":143,"num":74},{"id":95282,"name":"Ross Lake National Recreation Area","lat":48.7814512633,"lon":-121.1040321012,"rank":51,"num":633},{"id":69099,"name":"Grand Teton National Park","lat":43.8181626131,"lon":-110.7054884405,"rank":128,"num":110},{"id":95174,"name":"El Morro National Monument","lat":35.0389588384,"lon":-108.3463983909,"rank":192,"num":17},{"id":97472,"name":"Great Falls Park","lat":38.9877592737,"lon":-77.2512825955,"rank":175,"num":27},{"id":97399,"name":"Antietam National Battlefield","lat":39.4675347048,"lon":-77.738161373,"rank":131,"num":104},{"id":95289,"name":"San Francisco Maritime National Historical Park","lat":37.8100422128,"lon":-122.4244114285,"rank":188,"num":19},{"id":95266,"name":"Lake Chelan National Recreation Area","lat":48.3538115092,"lon":-120.6837308918,"rank":65,"num":347},{"id":63030,"name":"Valley Forge National Historical Park","lat":40.1005395654,"lon":-75.4458084121,"rank":92,"num":207},{"id":97438,"name":"Lyndon Baines Johnson Grove National Memorial","lat":38.8785803238,"lon":-77.0514583006,"rank":204,"num":14},{"id":95292,"name":"Oregon Caves National Monument","lat":42.103185589,"lon":-123.4018635776,"rank":122,"num":124},{"id":69111,"name":"Gates of the Arctic National Park","lat":67.7489354723,"lon":-153.3006340072,"rank":75,"num":302},{"id":95201,"name":"First State National Historical Park","lat":39.830836043,"lon":-75.5635482778,"rank":72,"num":306},{"id":95166,"name":"Ebey's Landing National Historical Reserve","lat":48.2140069349,"lon":-122.6877145621,"rank":136,"num":84},{"id":95137,"name":"Chattahoochee River National Recreation Area","lat":33.9965354559,"lon":-84.2903504689,"rank":166,"num":33},{"id":72649,"name":"Mammoth Cave National Park","lat":37.1975900141,"lon":-86.1309071463,"rank":154,"num":61},{"id":95209,"name":"New River Gorge National River","lat":37.8686043188,"lon":-80.999513915,"rank":178,"num":25},{"id":97396,"name":"Ala Kahakai National Historic Trail","lat":19.4720179807,"lon":-155.7298217411,"rank":194,"num":16},{"id":95098,"name":"Arkansas Post National Memorial","lat":34.0038649538,"lon":-91.3083196689,"rank":160,"num":41},{"id":97414,"name":"Fort Circle Parks","lat":38.9452071333,"lon":-77.0342311346,"rank":87,"num":256},{"id":95234,"name":"Little River Canyon National Preserve","lat":34.4146762277,"lon":-85.6172763475,"rank":39,"num":834},{"id":95099,"name":"Aztec Ruins National Monument","lat":36.8368279502,"lon":-107.999928008,"rank":88,"num":247},{"id":97466,"name":"Monocacy National Battlefield","lat":39.3608409283,"lon":-77.3963769836,"rank":77,"num":290},{"id":71077,"name":"Denali National Park","lat":63.2877031102,"lon":-151.0582196012,"rank":67,"num":332},{"id":95121,"name":"Cape Cod National Seashore","lat":41.9348627128,"lon":-70.0451298116,"rank":155,"num":51},{"id":95132,"name":"Colorado National Monument","lat":39.0504325405,"lon":-108.6920652897,"rank":142,"num":75},{"id":95284,"name":"Rosie the Riveter/World War II Home Front National Historical Park","lat":37.9099884376,"lon":-122.360141155,"rank":216,"num":9},{"id":97413,"name":"Fort Foote Park","lat":38.7690177231,"lon":-77.0281238497,"rank":229,"num":8},{"id":97406,"name":"Center for Urban Ecology","lat":38.9090355628,"lon":-77.0901138219,"rank":223,"num":9},{"id":95147,"name":"Timucuan Ecological and Historic Preserve","lat":30.4725659039,"lon":-81.4995818581,"rank":183,"num":24},{"id":95116,"name":"Boston Harbor Islands National Recreation Area","lat":42.309171262,"lon":-70.9399616402,"rank":187,"num":20},{"id":95287,"name":"Ninety Six National Historic Site","lat":34.1427671772,"lon":-82.0167132406,"rank":96,"num":196},{"id":97420,"name":"Fort Washington Park","lat":38.7121766555,"lon":-77.0287509341,"rank":230,"num":8},{"id":95319,"name":"Salt River Bay National Historical Park","lat":17.7790837437,"lon":-64.7551939973,"rank":236,"num":7},{"id":95231,"name":"Hopewell Furnace National Historic Site","lat":40.2060649776,"lon":-75.7681203679,"rank":43,"num":741},{"id":95126,"name":"Canyon de Chelly National Monument","lat":36.1439990877,"lon":-109.336504101,"rank":199,"num":15},{"id":95149,"name":"Cumberland Gap National Historical Park","lat":36.625004236,"lon":-83.6114493852,"rank":195,"num":16},{"id":95328,"name":"Stones River National Battlefield","lat":35.8760702941,"lon":-86.4308043995,"rank":224,"num":8},{"id":97428,"name":"Roosevelt-Vanderbilt National Historic Sites","lat":41.7705561873,"lon":-73.9247866588,"rank":221,"num":9},{"id":69699,"name":"Great Basin National Park","lat":38.9460928664,"lon":-114.2579622312,"rank":89,"num":228},{"id":69109,"name":"Carlsbad Caverns National Park","lat":32.1408676064,"lon":-104.5530066362,"rank":203,"num":14},{"id":95131,"name":"Canyonlands National Park","lat":38.2451488769,"lon":-109.8800996606,"rank":134,"num":95},{"id":97454,"name":"Washington Monument","lat":38.888651717,"lon":-77.0354658406,"rank":185,"num":23},{"id":65448,"name":"Ocmulgee National Monument","lat":32.8381659716,"lon":-83.602232776,"rank":227,"num":8},{"id":95230,"name":"Home of Franklin D Roosevelt National Historic Site","lat":41.7659814643,"lon":-73.9257641605,"rank":242,"num":6},{"id":95173,"name":"El Malpais National Monument","lat":34.8841282079,"lon":-107.9951097764,"rank":220,"num":9},{"id":95199,"name":"Glen Canyon National Recreation Area","lat":37.5155635115,"lon":-110.7736294846,"rank":198,"num":15},{"id":49610,"name":"Acadia National Park","lat":44.309944934,"lon":-68.3045198576,"rank":13,"num":1606},{"id":95334,"name":"Tule Springs Fossil Beds National Monument","lat":36.3892869296,"lon":-115.320201135,"rank":243,"num":5},{"id":95146,"name":"Timpanogos Cave National Monument","lat":40.4403970365,"lon":-111.7093943702,"rank":74,"num":306},{"id":95293,"name":"Obed Wild and Scenic River","lat":36.1079209794,"lon":-84.7745096941,"rank":253,"num":4},{"id":95208,"name":"Gettysburg National Military Park","lat":39.8153620679,"lon":-77.2324645004,"rank":135,"num":92},{"id":97462,"name":"Anacostia Park","lat":38.8886356211,"lon":-76.9720237933,"rank":113,"num":154},{"id":97455,"name":"Wolf Trap Farm Park National Park","lat":38.9385044448,"lon":-77.265032188,"rank":60,"num":474},{"id":97423,"name":"Greenbelt Park","lat":38.9832818412,"lon":-76.8972217459,"rank":193,"num":17},{"id":95313,"name":"San Juan National Historic Site","lat":18.4687377564,"lon":-66.1184266228,"rank":228,"num":8},{"id":95285,"name":"Natural Bridges National Monument","lat":37.6045310647,"lon":-110.0022585256,"rank":265,"num":3},{"id":95248,"name":"John Day Fossil Beds National Monument","lat":44.6264472089,"lon":-119.881066546,"rank":252,"num":4},{"id":95224,"name":"George Washington Carver National Monument","lat":36.9871320273,"lon":-94.3552273513,"rank":125,"num":118},{"id":90998,"name":"Capulin Volcano National Monument","lat":36.7817108648,"lon":-103.9710407742,"rank":81,"num":270},{"id":95104,"name":"City of Rocks National Reserve","lat":42.0698663898,"lon":-113.7124099305,"rank":225,"num":8},{"id":95150,"name":"Cumberland Island National Seashore","lat":30.8585155802,"lon":-81.4525456353,"rank":233,"num":7},{"id":95259,"name":"Pu'uhonua o Honaunau National Historical Park","lat":19.4126558845,"lon":-155.9008799801,"rank":210,"num":11},{"id":81884,"name":"President's Park","lat":38.8955986427,"lon":-77.0365377238,"rank":112,"num":156},{"id":95260,"name":"Kings Mountain National Military Park","lat":35.1385001244,"lon":-81.391105332,"rank":45,"num":732},{"id":97470,"name":"World War II Memorial","lat":38.8892391653,"lon":-77.0403758961,"rank":186,"num":21},{"id":97424,"name":"Pennsylvania Avenue National Historic Site","lat":38.8941695256,"lon":-77.0245236565,"rank":231,"num":8},{"id":95294,"name":"Wupatki National Monument","lat":35.5574096146,"lon":-111.3957365604,"rank":255,"num":4},{"id":4509,"name":"Lassen Volcanic National Park","lat":40.4935031756,"lon":-121.4075835157,"rank":102,"num":181},{"id":4512,"name":"Lava Beds National Monument","lat":41.7593648027,"lon":-121.5168465017,"rank":101,"num":181},{"id":72881,"name":"George Washington Birthplace National Monument","lat":38.1930148811,"lon":-76.9233121903,"rank":273,"num":2},{"id":97416,"name":"Fort Moultrie National Monument","lat":32.757973624,"lon":-79.8573933853,"rank":189,"num":18},{"id":65738,"name":"Fort McHenry National Monument and Historic Shrine","lat":39.2639547601,"lon":-76.5804494758,"rank":226,"num":8},{"id":95186,"name":"Fort Larned National Historic Site","lat":38.180477117,"lon":-99.2183710022,"rank":272,"num":2},{"id":95151,"name":"Dayton Aviation Heritage National Historical Park","lat":39.7906545976,"lon":-84.1012019923,"rank":218,"num":9},{"id":95134,"name":"Colonial National Historical Park","lat":37.2284310842,"lon":-76.6202284349,"rank":162,"num":36},{"id":69110,"name":"Bryce Canyon National Park","lat":37.5838820567,"lon":-112.1827196444,"rank":158,"num":47},{"id":95176,"name":"Eugene O'Neill National Historic Site","lat":37.826044557,"lon":-122.0271566356,"rank":269,"num":2},{"id":49676,"name":"Rocky Mountain National Park","lat":40.3554525675,"lon":-105.6973084089,"rank":34,"num":920},{"id":97446,"name":"Oxon Cove Park and Oxon Hill Run","lat":38.8063026998,"lon":-77.0111260443,"rank":256,"num":4},{"id":95094,"name":"Arlington House National Memorial","lat":38.8822030919,"lon":-77.0734781806,"rank":276,"num":2},{"id":72793,"name":"Theodore Roosevelt National Park","lat":47.1751759155,"lon":-103.4300899534,"rank":151,"num":63},{"id":95307,"name":"Petroglyph National Monument","lat":35.1391269403,"lon":-106.7491913305,"rank":247,"num":5},{"id":95267,"name":"Richmond National Battlefield Park","lat":37.5536118245,"lon":-77.3101190965,"rank":173,"num":28},{"id":95154,"name":"Missouri National Recreation River","lat":42.7879366918,"lon":-97.5902520202,"rank":274,"num":2},{"id":95279,"name":"Minute Man National Historical Park","lat":42.4562825603,"lon":-71.3074169091,"rank":214,"num":10},{"id":69108,"name":"Mesa Verde National Park","lat":37.2390451641,"lon":-108.4624178017,"rank":156,"num":51},{"id":95275,"name":"Lyndon B. Johnson National Historical Park","lat":30.2519686028,"lon":-98.6069623404,"rank":145,"num":72},{"id":95272,"name":"Lake Roosevelt National Recreation Area","lat":48.1771841431,"lon":-118.3294507547,"rank":116,"num":143},{"id":95271,"name":"Lake Meredith National Recreation Area","lat":35.6191720563,"lon":-101.6820554302,"rank":137,"num":84},{"id":4513,"name":"Manzanar National Historic Site","lat":36.7255914729,"lon":-118.154717759,"rank":246,"num":5},{"id":69097,"name":"North Cascades National Park","lat":48.7112507743,"lon":-121.2055112653,"rank":213,"num":11},{"id":95256,"name":"Kalaupapa National Historical Park","lat":21.1730837147,"lon":-156.951146717,"rank":290,"num":1},{"id":97433,"name":"Niobrara and Missouri National Scenic and Recreational Rivers","lat":42.7907993538,"lon":-98.2469645258,"rank":191,"num":18},{"id":95215,"name":"Jimmy Carter National Historic Site","lat":32.0306153952,"lon":-84.4160366774,"rank":212,"num":11},{"id":3378,"name":"Kings Canyon National Park","lat":36.8917133729,"lon":-118.5980774683,"rank":127,"num":115},{"id":95238,"name":"Independence National Historical Park","lat":39.9474569267,"lon":-75.147959239,"rank":262,"num":3},{"id":95281,"name":"Mount Rushmore National Memorial","lat":43.8803695567,"lon":-103.4525162096,"rank":261,"num":3},{"id":95214,"name":"Guilford Courthouse National Military Park","lat":36.1322574585,"lon":-79.8424438607,"rank":241,"num":6},{"id":53632,"name":"Great Sand Dunes National Park","lat":37.7924743363,"lon":-105.5919527143,"rank":170,"num":29},{"id":95187,"name":"Fort Matanzas National Monument","lat":29.7121451214,"lon":-81.2356924408,"rank":251,"num":4},{"id":95163,"name":"Fort Caroline National Memorial","lat":30.3845883418,"lon":-81.4979879356,"rank":71,"num":313},{"id":95171,"name":"Fort Pulaski National Monument","lat":32.0308261603,"lon":-80.9336182582,"rank":283,"num":1},{"id":95152,"name":"Florissant Fossil Beds National Monument","lat":38.9125938314,"lon":-105.2803355399,"rank":235,"num":7},{"id":95160,"name":"Fire Island National Seashore","lat":40.6966467822,"lon":-73.0001839174,"rank":211,"num":11},{"id":95172,"name":"Fort Raleigh National Historic Site","lat":35.9368712957,"lon":-75.7120625155,"rank":271,"num":2},{"id":52923,"name":"Crater Lake National Park","lat":42.9410865803,"lon":-122.1328204721,"rank":84,"num":265},{"id":95111,"name":"Carl Sandburg Home National Historic Site","lat":35.2681424692,"lon":-82.4510666867,"rank":138,"num":83},{"id":95135,"name":"Castillo de San Marcos National Monument","lat":29.8978503967,"lon":-81.3121674792,"rank":281,"num":1},{"id":90763,"name":"Abraham Lincoln Birthplace National Historical Park","lat":37.5857138373,"lon":-85.6734464163,"rank":280,"num":1},{"id":95335,"name":"Vanderbilt Mansion National Historic Site","lat":41.7970113308,"lon":-73.9420596416,"rank":279,"num":1},{"id":95320,"name":"Scotts Bluff National Monument","lat":41.8347574753,"lon":-103.7072472535,"rank":169,"num":31},{"id":97449,"name":"Grand Canyon-Parashant National Monument","lat":36.3600385478,"lon":-113.6415324554,"rank":266,"num":2},{"id":95318,"name":"Tupelo National Battlefield","lat":34.2555986705,"lon":-88.7371447955,"rank":429,"num":0},{"id":95117,"name":"Brices Cross Roads National Battlefield Site","lat":34.5061516301,"lon":-88.7288803606,"rank":428,"num":0},{"id":111291,"name":"Valles Caldera National Preserve","lat":35.9168213061,"lon":-106.5195593405,"rank":197,"num":16},{"id":97453,"name":"Vietnam Veterans Memorial","lat":38.890962966,"lon":-77.0476573551,"rank":427,"num":0},{"id":97452,"name":"Suitland Parkway","lat":38.8416136092,"lon":-76.925421158,"rank":426,"num":0},{"id":97450,"name":"Sewall-Belmont House National Historic Site","lat":38.8923392493,"lon":-77.0038188203,"rank":425,"num":0},{"id":97445,"name":"Martin Luther King Jr Memorial","lat":38.8862795427,"lon":-77.0442553714,"rank":424,"num":0},{"id":97437,"name":"Lincoln Memorial","lat":38.8892722915,"lon":-77.050177779,"rank":277,"num":2},{"id":97436,"name":"Korean War Veterans Memorial","lat":38.8878422646,"lon":-77.0477385695,"rank":423,"num":0},{"id":97432,"name":"Thomas Jefferson Memorial","lat":38.881014297,"lon":-77.0363257297,"rank":124,"num":119},{"id":97427,"name":"Harmony Hall","lat":38.7464634637,"lon":-77.0037706879,"rank":422,"num":0},{"id":97408,"name":"Glen Echo Park","lat":38.9662608831,"lon":-77.1387101059,"rank":295,"num":1},{"id":97415,"name":"Frederick Douglass National Historic Site","lat":38.8629845756,"lon":-76.985081467,"rank":421,"num":0},{"id":97421,"name":"Franklin Delano Roosevelt Memorial","lat":38.8834127345,"lon":-77.0431154159,"rank":420,"num":0},{"id":97417,"name":"Ford's Theatre National Historic Site","lat":38.8966804434,"lon":-77.0257771474,"rank":419,"num":0},{"id":95112,"name":"Clara Barton National Historic Site","lat":38.967628812,"lon":-77.1400968925,"rank":418,"num":0},{"id":97405,"name":"Capitol Hill Parks","lat":38.889174875,"lon":-76.9968356571,"rank":417,"num":0},{"id":97403,"name":"Baltimore-Washington","lat":39.0253362418,"lon":-76.8546305192,"rank":179,"num":25},{"id":97418,"name":"Fredericksburg old","lat":38.2928540043,"lon":-77.4691865935,"rank":416,"num":0},{"id":72658,"name":"Wrangell-St. Elias National Park","lat":61.3911342394,"lon":-142.5853566199,"rank":415,"num":0},{"id":95344,"name":"Wright Brothers National Memorial","lat":36.0163765448,"lon":-75.6699664591,"rank":294,"num":1},{"id":95291,"name":"Women's Rights National Historical Park","lat":42.9081338817,"lon":-76.8167685609,"rank":254,"num":4},{"id":95347,"name":"William Howard Taft National Historic Site","lat":39.1197035243,"lon":-84.5075895083,"rank":414,"num":0},{"id":95346,"name":"Wilson's Creek National Battlefield","lat":37.0999777101,"lon":-93.4098432073,"rank":237,"num":7},{"id":95349,"name":"Yucca House National Monument","lat":37.2477892818,"lon":-108.6861273987,"rank":413,"num":0},{"id":95348,"name":"Yukon-Charley Rivers National Preserve","lat":65.0897826685,"lon":-142.7984363038,"rank":412,"num":0},{"id":95345,"name":"President William Jefferson Clinton Birthplace Home National Historic Site","lat":33.6675835631,"lon":-93.596418682,"rank":411,"num":0},{"id":95343,"name":"Whitman Mission National Historic Site","lat":46.0417820535,"lon":-118.464468299,"rank":410,"num":0},{"id":95210,"name":"Ulysses S. Grant National Historic Site","lat":38.5518208083,"lon":-90.3516906809,"rank":409,"num":0},{"id":95338,"name":"Virgin Islands Coral Reef National Monument","lat":18.2899746557,"lon":-64.706843063,"rank":408,"num":0},{"id":95337,"name":"Vicksburg National Military Park","lat":32.3621262775,"lon":-90.8503001001,"rank":407,"num":0},{"id":95333,"name":"Tuskegee Institute National Historic Site","lat":32.4295713816,"lon":-85.7047660247,"rank":406,"num":0},{"id":95339,"name":"Washita Battlefield National Historic Site","lat":35.6208395511,"lon":-99.704451424,"rank":405,"num":0},{"id":69101,"name":"Voyageurs National Park","lat":48.4835418907,"lon":-92.8380984641,"rank":174,"num":27},{"id":95340,"name":"World War II Valor in the Pacific National Monument","lat":21.3667282007,"lon":-157.9409534455,"rank":215,"num":10},{"id":95324,"name":"Shiloh National Battlefield","lat":35.1385038568,"lon":-88.3421067383,"rank":293,"num":1},{"id":95290,"name":"Tuskegee Airmen National Historic Site","lat":32.4554014194,"lon":-85.6798313979,"rank":404,"num":0},{"id":95088,"name":"Theodore Roosevelt Inaugural National Historic Site","lat":42.9014678083,"lon":-78.8724841077,"rank":403,"num":0},{"id":95332,"name":"Theodore Roosevelt Birthplace National Historic Site","lat":40.7385931148,"lon":-73.9890126799,"rank":402,"num":0},{"id":95312,"name":"Saratoga National Historical Park","lat":42.9976834321,"lon":-73.631038648,"rank":222,"num":9},{"id":95315,"name":"Sand Creek Massacre National Historic Site","lat":38.5641372881,"lon":-102.5169482918,"rank":248,"num":5},{"id":95314,"name":"Salem Maritime National Historic Site","lat":42.520174779,"lon":-70.886351899,"rank":401,"num":0},{"id":95311,"name":"Saugus Iron Works National Historic Site","lat":42.4683121865,"lon":-71.0076781144,"rank":400,"num":0},{"id":95306,"name":"Petersburg National Battlefield","lat":37.1910831695,"lon":-77.4759932198,"rank":182,"num":24},{"id":81179,"name":"Pecos National Historical Park","lat":35.5419024902,"lon":-105.6815228024,"rank":399,"num":0},{"id":95268,"name":"Rio Grande Wild and Scenic River","lat":29.5309193697,"lon":-102.6008664798,"rank":398,"num":0},{"id":95299,"name":"Roger Williams National Memorial","lat":41.8298909645,"lon":-71.4105529205,"rank":397,"num":0},{"id":95247,"name":"Poverty Point National Monument","lat":32.6424484975,"lon":-91.4082979957,"rank":172,"num":28},{"id":72770,"name":"Pu'ukohola Heiau National Historic Site","lat":20.0277417303,"lon":-155.8211558178,"rank":275,"num":2},{"id":95143,"name":"Minuteman Missile National Historic Site","lat":43.864963097,"lon":-101.9485718613,"rank":396,"num":0},{"id":95277,"name":"Martin Luther King Jr. National Historic Site","lat":33.756194047,"lon":-84.3725731708,"rank":395,"num":0},{"id":95322,"name":"Springfield Armory National Historic Site","lat":42.1083098109,"lon":-72.5811257608,"rank":394,"num":0},{"id":95278,"name":"Maggie L. Walker National Historic Site","lat":37.5474944924,"lon":-77.4369312086,"rank":393,"num":0},{"id":97440,"name":"Mary McLeod Bethune Council House National Historic Site","lat":38.9081910692,"lon":-77.0309674227,"rank":392,"num":0},{"id":95270,"name":"Martin Van Buren National Historic Site","lat":42.3681992322,"lon":-73.7083347414,"rank":391,"num":0},{"id":95244,"name":"Lowell National Historical Park","lat":42.6450149096,"lon":-71.3169532973,"rank":390,"num":0},{"id":95239,"name":"Longfellow National Historic Site","lat":42.3769885345,"lon":-71.1263695595,"rank":389,"num":0},{"id":95240,"name":"Port Chicago Naval Magazine National Memorial","lat":38.056868973,"lon":-122.0301662098,"rank":388,"num":0},{"id":95232,"name":"Lincoln Home National Historic Site","lat":39.7971625189,"lon":-89.6451401845,"rank":387,"num":0},{"id":95222,"name":"Lincoln Boyhood National Memorial","lat":38.1181623985,"lon":-86.9965672885,"rank":386,"num":0},{"id":95261,"name":"Little Bighorn Battlefield National Monument","lat":45.5563248578,"lon":-107.418363956,"rank":207,"num":13},{"id":95273,"name":"Lewis and Clark National Historic Trail","lat":40.6641797124,"lon":-95.8324497997,"rank":10,"num":2228},{"id":95316,"name":"Salinas Pueblo Missions National Monument","lat":34.3539089914,"lon":-106.2047895715,"rank":385,"num":0},{"id":69115,"name":"Kobuk Valley National Park","lat":67.3533681646,"lon":-159.1989090274,"rank":384,"num":0},{"id":95265,"name":"Knife River Indian Villages National Historic Site","lat":47.3539037774,"lon":-101.3857204909,"rank":383,"num":0},{"id":95288,"name":"Noatak National Preserve","lat":68.0042120491,"lon":-159.8326831495,"rank":382,"num":0},{"id":95251,"name":"Pipe Spring National Monument","lat":36.8628266405,"lon":-112.7398566811,"rank":381,"num":0},{"id":95250,"name":"Pictured Rocks National Lakeshore","lat":46.5642436774,"lon":-86.3164522423,"rank":147,"num":68},{"id":95286,"name":"Navajo National Monument","lat":36.7175261542,"lon":-110.5504299855,"rank":292,"num":1},{"id":95243,"name":"Hohokam Pima National Monument","lat":33.187134851,"lon":-111.9192751852,"rank":380,"num":0},{"id":95249,"name":"Kennesaw Mountain National Battlefield Park","lat":33.9536626261,"lon":-84.5921528836,"rank":264,"num":3},{"id":69114,"name":"Lake Clark National Park","lat":60.5662095218,"lon":-153.5566660452,"rank":379,"num":0},{"id":95258,"name":"Kenai Fjords National Park","lat":59.8158304247,"lon":-150.1082342425,"rank":181,"num":24},{"id":95257,"name":"Katmai National Park","lat":58.6181671939,"lon":-155.0136296551,"rank":291,"num":1},{"id":97434,"name":"John F. Kennedy Center for Performing Arts","lat":38.8959425518,"lon":-77.0555870263,"rank":378,"num":0},{"id":95253,"name":"John Fitzgerald Kennedy National Historic Site","lat":42.346936939,"lon":-71.1232384633,"rank":377,"num":0},{"id":95252,"name":"John D. Rockefeller, Jr. Memorial Parkway","lat":44.0886991354,"lon":-110.728051017,"rank":376,"num":0},{"id":95218,"name":"Niobrara National Scenic River","lat":42.7940448903,"lon":-99.9183386426,"rank":201,"num":15},{"id":95217,"name":"Nicodemus National Historic Site","lat":39.3916803408,"lon":-99.6167983408,"rank":375,"num":0},{"id":95246,"name":"Jefferson National Expansion Memorial","lat":38.6232898155,"lon":-90.1803944326,"rank":374,"num":0},{"id":95228,"name":"Jewel Cave National Monument","lat":43.7310275309,"lon":-103.829996958,"rank":373,"num":0},{"id":95197,"name":"Nez Perce National Historical Park","lat":46.0591888348,"lon":-115.8950888016,"rank":153,"num":62},{"id":95297,"name":"Palo Alto Battlefield National Historical Park","lat":26.0238795761,"lon":-97.4629585249,"rank":245,"num":5},{"id":95229,"name":"Keweenaw National Historical Park","lat":47.1791815603,"lon":-88.5227796697,"rank":372,"num":0},{"id":95196,"name":"New Bedford Whaling National Historical Park","lat":41.6356424795,"lon":-70.9232089707,"rank":371,"num":0},{"id":95242,"name":"James A. Garfield National Historic Site","lat":41.6648654811,"lon":-81.3508655708,"rank":370,"num":0},{"id":95245,"name":"Isle Royale National Park","lat":48.0109564323,"lon":-88.8284163569,"rank":190,"num":18},{"id":95254,"name":"Johnstown Flood National Memorial","lat":40.3458770543,"lon":-78.7742391094,"rank":369,"num":0},{"id":97431,"name":"International Peace Garden","lat":48.9891896753,"lon":-100.063105494,"rank":263,"num":3},{"id":95206,"name":"Natchez National Historical Park","lat":31.547001408,"lon":-91.3904929218,"rank":368,"num":0},{"id":97429,"name":"Ice Age National Scenic Trail","lat":43.0783676072,"lon":-89.6166437358,"rank":289,"num":1},{"id":95237,"name":"Hubbell Trading Post National Historic Site","lat":35.7072731625,"lon":-109.5599515892,"rank":367,"num":0},{"id":95236,"name":"Harry S Truman National Historic Site","lat":38.9272260899,"lon":-94.5161614584,"rank":366,"num":0},{"id":95235,"name":"Hovenweep National Monument","lat":37.3913283205,"lon":-109.004812183,"rank":200,"num":15},{"id":95233,"name":"Honouliuli National Monument","lat":21.3881916169,"lon":-158.0575093029,"rank":365,"num":0},{"id":95221,"name":"Hopewell Culture National Historical Park","lat":39.3159332671,"lon":-83.0804592708,"rank":288,"num":1},{"id":95283,"name":"Minidoka National Historic Site","lat":42.8214596124,"lon":-114.4777575988,"rank":364,"num":0},{"id":95220,"name":"Hamilton Grange National Memorial","lat":40.8212801901,"lon":-73.9472712259,"rank":363,"num":0},{"id":95255,"name":"Kaloko-Honokohau National Historical Park","lat":19.680823019,"lon":-156.0306881253,"rank":177,"num":26},{"id":95216,"name":"Grand Portage National Monument","lat":47.9929181018,"lon":-89.7557641541,"rank":362,"num":0},{"id":95212,"name":"Golden Spike National Historic Site","lat":41.6195016486,"lon":-112.5241979795,"rank":287,"num":1},{"id":97422,"name":"Green Springs","lat":38.0274461831,"lon":-78.1654025897,"rank":286,"num":1},{"id":95200,"name":"Governors Island National Monument","lat":40.6916144812,"lon":-74.016688518,"rank":361,"num":0},{"id":95219,"name":"Hagerman Fossil Beds National Monument","lat":42.7907206588,"lon":-114.9443026242,"rank":285,"num":1},{"id":95204,"name":"George Rogers Clark National Historical Park","lat":38.6791300651,"lon":-87.535444579,"rank":360,"num":0},{"id":95203,"name":"General Grant National Memorial","lat":40.813434356,"lon":-73.9630756731,"rank":359,"num":0},{"id":95202,"name":"Gauley River National Recreation Area","lat":38.2061421693,"lon":-81.0042102677,"rank":358,"num":0},{"id":95180,"name":"Fredericksburg and Spotsylvania National Military Park","lat":38.2827617808,"lon":-77.6471093683,"rank":260,"num":3},{"id":95195,"name":"Fort Union Trading Post National Historic Site","lat":48.0014887986,"lon":-104.0378080526,"rank":357,"num":0},{"id":95227,"name":"Horseshoe Bend National Military Park","lat":32.9766876871,"lon":-85.7341361806,"rank":356,"num":0},{"id":95226,"name":"Herbert Hoover National Historic Site","lat":41.6678564557,"lon":-91.3524372446,"rank":355,"num":0},{"id":95192,"name":"Fort Union National Monument","lat":35.9070059109,"lon":-105.0145186322,"rank":196,"num":16},{"id":95157,"name":"Fort Smith National Historic Site","lat":35.3883381317,"lon":-94.4312736385,"rank":354,"num":0},{"id":95188,"name":"Fort Scott National Historic Site","lat":37.8435857106,"lon":-94.7042964932,"rank":353,"num":0},{"id":95225,"name":"Hampton National Historic Site","lat":39.4175424397,"lon":-76.5878113961,"rank":240,"num":6},{"id":95183,"name":"Fossil Butte National Monument","lat":41.8563338801,"lon":-110.7624644957,"rank":352,"num":0},{"id":95182,"name":"Fort Donelson National Battlefield","lat":36.4901986348,"lon":-87.924466938,"rank":284,"num":1},{"id":95169,"name":"Eisenhower National Historic Site","lat":39.795767559,"lon":-77.2650879484,"rank":351,"num":0},{"id":95141,"name":"Edison National Historic Site","lat":40.7854877069,"lon":-74.2381989819,"rank":350,"num":0},{"id":95167,"name":"Edgar Allan Poe National Historic Site","lat":39.9619548171,"lon":-75.1500061974,"rank":349,"num":0},{"id":95161,"name":"First Ladies National Historic Site","lat":40.7968985688,"lon":-81.3757986948,"rank":348,"num":0},{"id":95168,"name":"Effigy Mounds National Monument","lat":43.0809154261,"lon":-91.1968691883,"rank":234,"num":7},{"id":95165,"name":"Federal Hall National Memorial","lat":40.7073119221,"lon":-74.0102563575,"rank":347,"num":0},{"id":95185,"name":"Fort Laramie National Historic Site","lat":42.2030276003,"lon":-104.5458975635,"rank":346,"num":0},{"id":95213,"name":"Grant-Kohrs Ranch National Historic Site","lat":46.4135926131,"lon":-112.7466955362,"rank":219,"num":9},{"id":95156,"name":"De Soto National Memorial","lat":27.5227380058,"lon":-82.6433298455,"rank":345,"num":0},{"id":5232,"name":"Devils Postpile National Monument","lat":37.6153736115,"lon":-119.0876861111,"rank":165,"num":34},{"id":95184,"name":"Fort Frederica National Monument","lat":31.2214206294,"lon":-81.3945113526,"rank":344,"num":0},{"id":95159,"name":"Devils Tower National Monument","lat":44.590648539,"lon":-104.7156419463,"rank":259,"num":3},{"id":97412,"name":"Chimney Rock","lat":41.7022923845,"lon":-103.3472678443,"rank":343,"num":0},{"id":95145,"name":"Christiansted National Historic Site","lat":17.7377424348,"lon":-64.7289988901,"rank":342,"num":0},{"id":95140,"name":"Chickasaw National Recreation Area","lat":34.4604913449,"lon":-97.0071585336,"rank":341,"num":0},{"id":53640,"name":"Cedar Breaks National Monument","lat":37.6354512091,"lon":-112.8452651283,"rank":206,"num":13},{"id":95133,"name":"Cedar Creek & Belle Grove Historical Park","lat":39.0093219893,"lon":-78.3062139027,"rank":340,"num":0},{"id":95189,"name":"Fort Necessity National Battlefield","lat":39.8130588794,"lon":-79.5903257366,"rank":270,"num":2},{"id":97410,"name":"Carter G. Woodson National Historic Site","lat":38.9108928629,"lon":-77.0243110435,"rank":339,"num":0},{"id":95105,"name":"Cane River Creole National Historical Park","lat":31.6539372549,"lon":-93.0012298499,"rank":338,"num":0},{"id":69282,"name":"Capitol Reef National Park","lat":38.1773126224,"lon":-111.1763977826,"rank":163,"num":35},{"id":95310,"name":"Saint Paul's Church National Historic Site","lat":40.8928351112,"lon":-73.8257727659,"rank":337,"num":0},{"id":95127,"name":"Castle Clinton National Monument","lat":40.7034779493,"lon":-74.0168055803,"rank":336,"num":0},{"id":95123,"name":"Buck Island Reef National Monument","lat":17.8102229818,"lon":-64.6221941417,"rank":335,"num":0},{"id":95178,"name":"Fort Davis National Historic Site","lat":30.5992915647,"lon":-103.8961947248,"rank":217,"num":9},{"id":95142,"name":"Curecanti National Recreation Area","lat":38.4658289544,"lon":-107.3303634394,"rank":239,"num":6},{"id":95124,"name":"Charles Young Buffalo Soldiers National Monument","lat":39.7081782542,"lon":-83.8932857376,"rank":334,"num":0},{"id":95120,"name":"Booker T. Washington National Monument","lat":37.1152316341,"lon":-79.7318422136,"rank":333,"num":0},{"id":95119,"name":"Boston National Historical Park","lat":42.3697926602,"lon":-71.0553717137,"rank":244,"num":5},{"id":95103,"name":"Little Rock Central High School National Historic Site","lat":34.7369462354,"lon":-92.2998815779,"rank":332,"num":0},{"id":97407,"name":"Gloria Dei (Old Swedes') Church","lat":39.9343774051,"lon":-75.1435836067,"rank":331,"num":0},{"id":95177,"name":"Flight 93 National Memorial","lat":40.0606207009,"lon":-78.8945660277,"rank":167,"num":33},{"id":95090,"name":"Casa Grande Ruins National Monument","lat":32.9970256573,"lon":-111.5325383286,"rank":330,"num":0},{"id":95115,"name":"Boston African American","lat":42.3589912279,"lon":-71.067955595,"rank":329,"num":0},{"id":95114,"name":"Bluestone National Scenic River","lat":37.5657589068,"lon":-80.9836715498,"rank":202,"num":14},{"id":95148,"name":"Cowpens National Battlefield","lat":35.1316067832,"lon":-81.8093251435,"rank":139,"num":77},{"id":95118,"name":"Brown v. Board of Education National Historic Site","lat":39.0378766462,"lon":-95.6761443658,"rank":328,"num":0},{"id":72635,"name":"Black Canyon of the Gunnison National Park","lat":38.5777750372,"lon":-107.7242615973,"rank":157,"num":48},{"id":95087,"name":"Cape Lookout National Seashore","lat":34.8263961869,"lon":-76.3434846978,"rank":258,"num":3},{"id":95083,"name":"Cape Krusenstern National Monument","lat":67.4118806367,"lon":-163.5020061165,"rank":327,"num":0},{"id":95190,"name":"Fort Stanwix National Monument","lat":43.2105470824,"lon":-75.4555908832,"rank":326,"num":0},{"id":95100,"name":"Bering Land Bridge National Preserve","lat":65.9546125805,"lon":-164.4038137346,"rank":66,"num":337},{"id":97404,"name":"Benjamin Franklin","lat":39.9582155003,"lon":-75.1732214751,"rank":325,"num":0},{"id":69113,"name":"Glacier Bay National Park","lat":58.797434516,"lon":-136.8381195665,"rank":205,"num":13},{"id":95198,"name":"Gila Cliff Dwellings National Monument","lat":33.2271522566,"lon":-108.270670874,"rank":282,"num":1},{"id":95107,"name":"Big Hole National Battlefield","lat":45.6469181445,"lon":-113.6501481531,"rank":324,"num":0},{"id":95102,"name":"Bighorn Canyon National Recreation Area","lat":45.0339407204,"lon":-108.2049263874,"rank":323,"num":0},{"id":97402,"name":"Bear Paw Battlefield","lat":48.3741100905,"lon":-109.2054128337,"rank":322,"num":0},{"id":97401,"name":"Battleground National Cemetery","lat":38.9707396068,"lon":-77.0266855603,"rank":321,"num":0},{"id":95179,"name":"Frederick Law Olmsted National Historic Site","lat":42.3255086738,"lon":-71.1311295693,"rank":320,"num":0},{"id":95101,"name":"Bent's Old Fort National Historic Site","lat":38.0397675619,"lon":-103.4266563574,"rank":208,"num":12},{"id":95194,"name":"Friendship Hill National Historic Site","lat":39.7754513431,"lon":-79.9252784256,"rank":319,"num":0},{"id":95096,"name":"Apostle Islands National Lakeshore","lat":46.9635061963,"lon":-90.6603661734,"rank":238,"num":6},{"id":95095,"name":"Appomattox Court House National Historical Park","lat":37.3802182183,"lon":-78.7985555283,"rank":318,"num":0},{"id":95158,"name":"Moores Creek National Battlefield","lat":34.4582226068,"lon":-78.1103135936,"rank":317,"num":0},{"id":95162,"name":"Tonto National Monument","lat":33.6484288479,"lon":-111.1135629032,"rank":316,"num":0},{"id":95093,"name":"Andrew Johnson National Historic Site","lat":36.1562633468,"lon":-82.8370636111,"rank":315,"num":0},{"id":95092,"name":"Aniakchak National Monument","lat":56.8719405208,"lon":-157.8111839257,"rank":314,"num":0},{"id":95139,"name":"Chaco Culture National Historical Park","lat":36.0395858991,"lon":-107.9560157132,"rank":268,"num":2},{"id":95136,"name":"Chamizal National Memorial","lat":31.7672963186,"lon":-106.454401126,"rank":313,"num":0},{"id":95086,"name":"Andersonville National Historic Site","lat":32.1983202961,"lon":-84.1298881574,"rank":312,"num":0},{"id":95085,"name":"Amistad National Recreation Area","lat":29.5356595804,"lon":-101.0763133914,"rank":257,"num":3},{"id":72632,"name":"Allegheny Portage Railroad National Historic Site","lat":40.4296982177,"lon":-78.5742819549,"rank":310,"num":0},{"id":95175,"name":"Eleanor Roosevelt National Historic Site","lat":41.7619625028,"lon":-73.8989165476,"rank":267,"num":2},{"id":95091,"name":"Alagnak Wild River","lat":59.0517319364,"lon":-156.1119388139,"rank":309,"num":0},{"id":95084,"name":"Alibates Flint Quarries National Monument","lat":35.5819671335,"lon":-101.671699019,"rank":250,"num":4},{"id":95089,"name":"Agate Fossil Beds National Monument","lat":42.4217029039,"lon":-103.7538842447,"rank":176,"num":26},{"id":95082,"name":"African Burial Ground National Monument","lat":40.7145494791,"lon":-74.0043289125,"rank":308,"num":0},{"id":95081,"name":"Adams National Historical Park","lat":42.2556557769,"lon":-71.0118123888,"rank":307,"num":0},{"id":95128,"name":"Thomas Stone National Historic Site","lat":38.5293362309,"lon":-77.0378171583,"rank":306,"num":0},{"id":95329,"name":"Sunset Crater Volcano National Monument","lat":35.3711420255,"lon":-111.510376041,"rank":305,"num":0},{"id":97451,"name":"Selma to Montgomery National Historic Trail","lat":32.2708209211,"lon":-86.7282370169,"rank":304,"num":0},{"id":95331,"name":"Thaddeus Kosciuszko National Memorial","lat":39.9434531214,"lon":-75.1473204523,"rank":303,"num":0},{"id":90359,"name":"Sagamore Hill National Historic Site","lat":40.8857581561,"lon":-73.4973634113,"rank":152,"num":62},{"id":95327,"name":"Statue Of Liberty National Monument","lat":40.6955642431,"lon":-74.0419656117,"rank":249,"num":4},{"id":95305,"name":"Saint Croix Island International Historic Site","lat":45.1280056205,"lon":-67.1330243442,"rank":302,"num":0},{"id":95304,"name":"Saint Croix National Scenic Riverway","lat":45.9379030369,"lon":-92.2144886882,"rank":140,"num":76},{"id":95308,"name":"Perry's Victory and International Peace Memorial","lat":41.6545046606,"lon":-82.8115757808,"rank":301,"num":0},{"id":95276,"name":"River Raisin National Battlefield Park","lat":41.9128977065,"lon":-83.3762042635,"rank":300,"num":0},{"id":95302,"name":"Pea Ridge National Military Park","lat":36.4543753017,"lon":-94.0346845975,"rank":299,"num":0},{"id":95263,"name":"Rainbow Bridge National Monument","lat":37.0778876287,"lon":-110.9655098716,"rank":298,"num":0},{"id":95262,"name":"Pullman National Monument","lat":41.6942916335,"lon":-87.6087382393,"rank":105,"num":175},{"id":95298,"name":"Paterson Great Falls National Historical Park","lat":40.9158359356,"lon":-74.1802338539,"rank":209,"num":11},{"id":95323,"name":"Steamtown National Historic Site","lat":41.4075949999,"lon":-75.6703898177,"rank":297,"num":0},{"id":95296,"name":"Ozark National Scenic Riverway","lat":37.1392832529,"lon":-91.2568153567,"rank":278,"num":1},{"id":95301,"name":"Russell Cave National Monument","lat":34.9740154201,"lon":-85.8156130804,"rank":232,"num":7},{"id":97448,"name":"Ronald Reagan Boyhood Home National Historic Site","lat":41.8362324198,"lon":-89.480292243,"rank":296,"num":0}]