[{"id":111030,"name":"Pullman National Monument","lat":41.6941354493,"lon":-87.6083179768,"num":175,"rank":106},{"id":111030,"name":"Acadia National Park","lat":44.309944934,"lon":-68.3045198576,"num":1606,"rank":13},{"id":111030,"name":"Great Smoky Mountains National Park","lat":35.6005555209,"lon":-83.5085153151,"num":3158,"rank":6},{"id":111030,"name":"Lewis and Clark National Historic Trail","lat":40.6641797124,"lon":-95.8324497997,"num":2245,"rank":10},{"id":111030,"name":"Lewis and Clark National Historical Park","lat":46.2082154637,"lon":-123.9628909917,"num":1142,"rank":21},{"id":111030,"name":"North Cascades National Park Service Complex","lat":48.6902198473,"lon":-121.140030848,"num":991,"rank":30},{"id":111030,"name":"Fort Dupont Park","lat":38.8775280847,"lon":-76.9496513207,"num":73,"rank":145},{"id":111030,"name":"Theodore Roosevelt Island National Memorial","lat":38.8958414917,"lon":-77.0624191432,"num":493,"rank":59},{"id":111030,"name":"President's Park","lat":38.8955986427,"lon":-77.0365377238,"num":156,"rank":114},{"id":111030,"name":"Tupelo National Battlefield","lat":34.2555986705,"lon":-88.7371447955,"num":0,"rank":429},{"id":111030,"name":"Brices Cross Roads National Battlefield Site","lat":34.5061516301,"lon":-88.7288803606,"num":0,"rank":428},{"id":111030,"name":"Natchez Trace Parkway and National Scenic Trail","lat":33.7891261443,"lon":-89.0208395822,"num":205,"rank":95},{"id":111030,"name":"Valles Caldera National Preserve","lat":35.9168213061,"lon":-106.5195593405,"num":16,"rank":197},{"id":111030,"name":"Olympic National Park","lat":47.8032404172,"lon":-123.666118523,"num":1054,"rank":28},{"id":111030,"name":"Ninety Six National Historic Site","lat":34.1427671772,"lon":-82.0167132406,"num":196,"rank":97},{"id":111030,"name":"Kings Mountain National Military Park","lat":35.1385001244,"lon":-81.391105332,"num":732,"rank":46},{"id":111030,"name":"Wind Cave National Park","lat":43.5800613892,"lon":-103.4394556948,"num":802,"rank":41},{"id":111030,"name":"Great Falls Park","lat":38.9877592737,"lon":-77.2512825955,"num":27,"rank":175},{"id":111030,"name":"Rock Creek Park","lat":38.9512403375,"lon":-77.0500309763,"num":2139,"rank":11},{"id":111030,"name":"Monocacy National Battlefield","lat":39.3608409283,"lon":-77.3963769836,"num":290,"rank":77},{"id":111030,"name":"World War II Memorial","lat":38.8892391653,"lon":-77.0403758961,"num":21,"rank":187},{"id":111030,"name":"National Capital Parks-East","lat":38.9008042255,"lon":-76.932670758,"num":151,"rank":116},{"id":111030,"name":"Prince William Forest Park","lat":38.585882854,"lon":-77.3891083762,"num":323,"rank":69},{"id":111030,"name":"Piscataway Park","lat":38.6867983763,"lon":-77.0665996918,"num":1083,"rank":25},{"id":111030,"name":"Chesapeake and Ohio Canal National Historical Park","lat":39.3897702957,"lon":-77.8962200537,"num":1238,"rank":18},{"id":111030,"name":"Anacostia Park","lat":38.8886356211,"lon":-76.9720237933,"num":171,"rank":108},{"id":111030,"name":"Wolf Trap Farm Park National Park","lat":38.9385044448,"lon":-77.265032188,"num":474,"rank":60},{"id":111030,"name":"Washington Monument","lat":38.888651717,"lon":-77.0354658406,"num":23,"rank":185},{"id":111030,"name":"Vietnam Veterans Memorial","lat":38.890962966,"lon":-77.0476573551,"num":0,"rank":427},{"id":111030,"name":"Suitland Parkway","lat":38.8416136092,"lon":-76.925421158,"num":0,"rank":426},{"id":111030,"name":"Sewall-Belmont House National Historic Site","lat":38.8923392493,"lon":-77.0038188203,"num":0,"rank":425},{"id":111030,"name":"Oxon Cove Park and Oxon Hill Run","lat":38.8063026998,"lon":-77.0111260443,"num":4,"rank":257},{"id":111030,"name":"Martin Luther King Jr Memorial","lat":38.8862795427,"lon":-77.0442553714,"num":0,"rank":424},{"id":111030,"name":"Manassas National Battlefield Park","lat":38.8171433919,"lon":-77.5352993448,"num":686,"rank":48},{"id":111030,"name":"Lyndon Baines Johnson Grove National Memorial","lat":38.8785803238,"lon":-77.0514583006,"num":14,"rank":204},{"id":111030,"name":"Lincoln Memorial","lat":38.8892722915,"lon":-77.050177779,"num":2,"rank":277},{"id":111030,"name":"Korean War Veterans Memorial","lat":38.8878422646,"lon":-77.0477385695,"num":0,"rank":423},{"id":111030,"name":"Thomas Jefferson Memorial","lat":38.881014297,"lon":-77.0363257297,"num":119,"rank":125},{"id":111030,"name":"Pennsylvania Avenue National Historic Site","lat":38.8941695256,"lon":-77.0245236565,"num":8,"rank":231},{"id":111030,"name":"Harpers Ferry National Historical Park","lat":39.3186397329,"lon":-77.7408618164,"num":382,"rank":64},{"id":111030,"name":"George Washington Memorial Parkway","lat":38.8622391228,"lon":-77.0919610922,"num":1080,"rank":26},{"id":111030,"name":"Greenbelt Park","lat":38.9832818412,"lon":-76.8972217459,"num":17,"rank":193},{"id":111030,"name":"Harmony Hall","lat":38.7464634637,"lon":-77.0037706879,"num":0,"rank":422},{"id":111030,"name":"Glen Echo Park","lat":38.9662608831,"lon":-77.1387101059,"num":1,"rank":295},{"id":111030,"name":"Frederick Douglass National Historic Site","lat":38.8629845756,"lon":-76.985081467,"num":0,"rank":421},{"id":111030,"name":"Franklin Delano Roosevelt Memorial","lat":38.8834127345,"lon":-77.0431154159,"num":0,"rank":420},{"id":111030,"name":"Fort Washington Park","lat":38.7121766555,"lon":-77.0287509341,"num":8,"rank":230},{"id":111030,"name":"Ford's Theatre National Historic Site","lat":38.8966804434,"lon":-77.0257771474,"num":0,"rank":419},{"id":111030,"name":"Fort Foote Park","lat":38.7690177231,"lon":-77.0281238497,"num":8,"rank":229},{"id":111030,"name":"Fort Circle Parks","lat":38.9452071333,"lon":-77.0342311346,"num":256,"rank":87},{"id":111030,"name":"Clara Barton National Historic Site","lat":38.967628812,"lon":-77.1400968925,"num":0,"rank":418},{"id":111030,"name":"Center for Urban Ecology","lat":38.9090355628,"lon":-77.0901138219,"num":9,"rank":223},{"id":111030,"name":"National Mall and Memorial Parks","lat":38.8824418942,"lon":-77.0336705321,"num":769,"rank":44},{"id":111030,"name":"Capitol Hill Parks","lat":38.889174875,"lon":-76.9968356571,"num":0,"rank":417},{"id":111030,"name":"Baltimore-Washington","lat":39.0253362418,"lon":-76.8546305192,"num":25,"rank":179},{"id":111030,"name":"Antietam National Battlefield","lat":39.4675347048,"lon":-77.738161373,"num":104,"rank":131},{"id":111030,"name":"Arlington House National Memorial","lat":38.8822030919,"lon":-77.0734781806,"num":2,"rank":276},{"id":111030,"name":"Catoctin Mountain Park","lat":39.6506854958,"lon":-77.4641646197,"num":793,"rank":42},{"id":111030,"name":"Fort Bowie National Historic Site","lat":32.149252772,"lon":-109.4511217875,"num":175,"rank":105},{"id":111030,"name":"Fredericksburg old","lat":38.2928540043,"lon":-77.4691865935,"num":0,"rank":416},{"id":111030,"name":"Dyke Marsh","lat":38.7662419291,"lon":-77.0482292755,"num":592,"rank":54},{"id":111030,"name":"Yellowstone National Park","lat":44.596413865,"lon":-110.5471101058,"num":909,"rank":36},{"id":111030,"name":"Wupatki National Monument","lat":35.5574096146,"lon":-111.3957365604,"num":4,"rank":256},{"id":111030,"name":"Wrangell-St. Elias National Park","lat":61.3911342394,"lon":-142.5853566199,"num":0,"rank":415},{"id":111030,"name":"Wright Brothers National Memorial","lat":36.0163765448,"lon":-75.6699664591,"num":1,"rank":294},{"id":111030,"name":"Women's Rights National Historical Park","lat":42.9081338817,"lon":-76.8167685609,"num":4,"rank":255},{"id":111030,"name":"William Howard Taft National Historic Site","lat":39.1197035243,"lon":-84.5075895083,"num":0,"rank":414},{"id":111030,"name":"Wilson's Creek National Battlefield","lat":37.0999777101,"lon":-93.4098432073,"num":7,"rank":237},{"id":111030,"name":"Yucca House National Monument","lat":37.2477892818,"lon":-108.6861273987,"num":0,"rank":413},{"id":111030,"name":"Yukon-Charley Rivers National Preserve","lat":65.0897826685,"lon":-142.7984363038,"num":0,"rank":412},{"id":111030,"name":"Yosemite National Park","lat":37.8483345604,"lon":-119.5569911426,"num":1341,"rank":16},{"id":111030,"name":"Zion National Park","lat":37.2982228432,"lon":-113.0264472831,"num":326,"rank":68},{"id":111030,"name":"President William Jefferson Clinton Birthplace Home National Historic Site","lat":33.6675835631,"lon":-93.596418682,"num":0,"rank":411},{"id":111030,"name":"Whitman Mission National Historic Site","lat":46.0417820535,"lon":-118.464468299,"num":0,"rank":410},{"id":111030,"name":"Whiskeytown-Shasta-Trinity National Recreation Area","lat":40.6135812591,"lon":-122.6022604132,"num":291,"rank":76},{"id":111030,"name":"Weir Farm National Historic Site","lat":41.2588243731,"lon":-73.4545397628,"num":1133,"rank":22},{"id":111030,"name":"War in the Pacific National Historic Park","lat":13.4386958941,"lon":144.6924031856,"num":219,"rank":91},{"id":111030,"name":"Ulysses S. Grant National Historic Site","lat":38.5518208083,"lon":-90.3516906809,"num":0,"rank":409},{"id":111030,"name":"Tuzigoot National Monument","lat":34.7729575509,"lon":-112.0279092783,"num":43,"rank":159},{"id":111030,"name":"Virgin Islands Coral Reef National Monument","lat":18.2899746557,"lon":-64.706843063,"num":0,"rank":408},{"id":111030,"name":"Vicksburg National Military Park","lat":32.3621262775,"lon":-90.8503001001,"num":0,"rank":407},{"id":111030,"name":"Virgin Islands National Park","lat":18.3427954307,"lon":-64.7419329315,"num":126,"rank":122},{"id":111030,"name":"Tumacacori National Historical Park","lat":31.5611843555,"lon":-111.0385102554,"num":708,"rank":47},{"id":111030,"name":"Tuskegee Institute National Historic Site","lat":32.4295713816,"lon":-85.7047660247,"num":0,"rank":406},{"id":111030,"name":"Theodore Roosevelt National Park","lat":47.1751759155,"lon":-103.4300899534,"num":81,"rank":139},{"id":111030,"name":"Walnut Canyon National Monument","lat":35.1682147391,"lon":-111.5024149867,"num":33,"rank":168},{"id":111030,"name":"Washita Battlefield National Historic Site","lat":35.6208395511,"lon":-99.704451424,"num":0,"rank":405},{"id":111030,"name":"Voyageurs National Park","lat":48.4835418907,"lon":-92.8380984641,"num":27,"rank":174},{"id":111030,"name":"Timucuan Ecological and Historic Preserve","lat":30.4725659039,"lon":-81.4995818581,"num":24,"rank":183},{"id":111030,"name":"Tallgrass Prairie National Preserve","lat":38.4402570818,"lon":-96.5672295863,"num":72,"rank":147},{"id":111030,"name":"World War II Valor in the Pacific National Monument","lat":21.3667282007,"lon":-157.9409534455,"num":10,"rank":215},{"id":111030,"name":"Timpanogos Cave National Monument","lat":40.4403970365,"lon":-111.7093943702,"num":306,"rank":74},{"id":111030,"name":"Sitka National Historical Park","lat":57.0471863297,"lon":-135.3156888306,"num":102,"rank":133},{"id":111030,"name":"Shiloh National Battlefield","lat":35.1385038568,"lon":-88.3421067383,"num":1,"rank":293},{"id":111030,"name":"Tuskegee Airmen National Historic Site","lat":32.4554014194,"lon":-85.6798313979,"num":0,"rank":404},{"id":111030,"name":"Theodore Roosevelt Inaugural National Historic Site","lat":42.9014678083,"lon":-78.8724841077,"num":0,"rank":403},{"id":111030,"name":"Theodore Roosevelt Birthplace National Historic Site","lat":40.7385931148,"lon":-73.9890126799,"num":0,"rank":402},{"id":111030,"name":"Shenandoah National Park","lat":38.4917866995,"lon":-78.4691065347,"num":649,"rank":50},{"id":111030,"name":"Sequoia National Park","lat":36.5076910152,"lon":-118.5752170554,"num":501,"rank":57},{"id":111030,"name":"Salt River Bay National Historical Park","lat":17.7790837437,"lon":-64.7551939973,"num":7,"rank":236},{"id":111030,"name":"Saratoga National Historical Park","lat":42.9976834321,"lon":-73.631038648,"num":9,"rank":222},{"id":111030,"name":"Sand Creek Massacre National Historic Site","lat":38.5641372881,"lon":-102.5169482918,"num":5,"rank":249},{"id":111030,"name":"Santa Monica Mountains National Recreation Area","lat":34.0976714409,"lon":-118.771017313,"num":7201,"rank":3},{"id":111030,"name":"Salem Maritime National Historic Site","lat":42.520174779,"lon":-70.886351899,"num":0,"rank":401},{"id":111030,"name":"San Juan National Historic Site","lat":18.4687377564,"lon":-66.1184266228,"num":8,"rank":228},{"id":111030,"name":"San Juan Island National Historical Park","lat":48.5120013827,"lon":-123.0605569798,"num":205,"rank":94},{"id":111030,"name":"Saugus Iron Works National Historic Site","lat":42.4683121865,"lon":-71.0076781144,"num":0,"rank":400},{"id":111030,"name":"San Antonio Missions National Historical Park","lat":29.3125297711,"lon":-98.4288447764,"num":262,"rank":86},{"id":111030,"name":"Petroglyph National Monument","lat":35.1391269403,"lon":-106.7491913305,"num":5,"rank":248},{"id":111030,"name":"Petersburg National Battlefield","lat":37.1910831695,"lon":-77.4759932198,"num":24,"rank":182},{"id":111030,"name":"Pecos National Historical Park","lat":35.5419024902,"lon":-105.6815228024,"num":0,"rank":399},{"id":111030,"name":"Ross Lake National Recreation Area","lat":48.7814512633,"lon":-121.1040321012,"num":633,"rank":51},{"id":111030,"name":"Rio Grande Wild and Scenic River","lat":29.5309193697,"lon":-102.6008664798,"num":0,"rank":398},{"id":111030,"name":"Richmond National Battlefield Park","lat":37.5536118245,"lon":-77.3101190965,"num":28,"rank":173},{"id":111030,"name":"Redwood National Park","lat":41.3712006553,"lon":-124.0316415825,"num":233,"rank":89},{"id":111030,"name":"Organ Pipe Cactus National Monument","lat":32.0357154887,"lon":-112.8572812695,"num":423,"rank":62},{"id":111030,"name":"San Francisco Maritime National Historical Park","lat":37.8100422128,"lon":-122.4244114285,"num":21,"rank":186},{"id":111030,"name":"Obed Wild and Scenic River","lat":36.1079209794,"lon":-84.7745096941,"num":4,"rank":254},{"id":111030,"name":"Roger Williams National Memorial","lat":41.8298909645,"lon":-71.4105529205,"num":0,"rank":397},{"id":111030,"name":"Poverty Point National Monument","lat":32.6424484975,"lon":-91.4082979957,"num":28,"rank":172},{"id":111030,"name":"National Park of American Samoa","lat":-14.2449488354,"lon":-169.926539672,"num":135,"rank":120},{"id":111030,"name":"Pu'ukohola Heiau National Historic Site","lat":20.0277417303,"lon":-155.8211558178,"num":2,"rank":275},{"id":111030,"name":"Morristown National Historical Park","lat":40.7652335569,"lon":-74.534572715,"num":23,"rank":184},{"id":111030,"name":"Mount Rainier National Park","lat":46.860920063,"lon":-121.7056276725,"num":842,"rank":39},{"id":111030,"name":"Presidio of San Francisco","lat":37.7970471643,"lon":-122.4671242116,"num":2061,"rank":12},{"id":111030,"name":"Oregon Caves National Monument","lat":42.103185589,"lon":-123.4018635776,"num":124,"rank":124},{"id":111030,"name":"Mojave National Preserve","lat":35.1242050993,"lon":-115.5168129904,"num":1517,"rank":15},{"id":111030,"name":"Ocmulgee National Monument","lat":32.8381659716,"lon":-83.602232776,"num":8,"rank":227},{"id":111030,"name":"Missouri National Recreation River","lat":42.7879366918,"lon":-97.5902520202,"num":2,"rank":274},{"id":111030,"name":"Mississippi National River and Recreation Area","lat":44.873941451,"lon":-93.0464523057,"num":153,"rank":115},{"id":111030,"name":"Minuteman Missile National Historic Site","lat":43.864963097,"lon":-101.9485718613,"num":0,"rank":396},{"id":111030,"name":"Minute Man National Historical Park","lat":42.4562825603,"lon":-71.3074169091,"num":10,"rank":214},{"id":111030,"name":"Montezuma Castle National Monument","lat":34.6223894456,"lon":-111.8147416629,"num":63,"rank":151},{"id":111030,"name":"Mesa Verde National Park","lat":37.2390451641,"lon":-108.4624178017,"num":51,"rank":156},{"id":111030,"name":"Martin Luther King Jr. National Historic Site","lat":33.756194047,"lon":-84.3725731708,"num":0,"rank":395},{"id":111030,"name":"National Mall","lat":38.8898607572,"lon":-77.0227800773,"num":211,"rank":92},{"id":111030,"name":"Mammoth Cave National Park","lat":37.1975900141,"lon":-86.1309071463,"num":61,"rank":154},{"id":111030,"name":"Constitution Gardens","lat":38.890937261,"lon":-77.0442651043,"num":592,"rank":53},{"id":111030,"name":"Congaree National Park","lat":33.791640292,"lon":-80.7477607445,"num":1292,"rank":17},{"id":111030,"name":"Marsh-Billings-Rockefeller National Historical Park","lat":43.633420268,"lon":-72.5348094169,"num":809,"rank":40},{"id":111030,"name":"Springfield Armory National Historic Site","lat":42.1083098109,"lon":-72.5811257608,"num":0,"rank":394},{"id":111030,"name":"Maggie L. Walker National Historic Site","lat":37.5474944924,"lon":-77.4369312086,"num":0,"rank":393},{"id":111030,"name":"Mary McLeod Bethune Council House National Historic Site","lat":38.9081910692,"lon":-77.0309674227,"num":0,"rank":392},{"id":111030,"name":"Lyndon B. Johnson National Historical Park","lat":30.2519686028,"lon":-98.6069623404,"num":72,"rank":146},{"id":111030,"name":"Cabrillo National Monument","lat":32.6701200237,"lon":-117.2428532785,"num":3195,"rank":5},{"id":111030,"name":"Martin Van Buren National Historic Site","lat":42.3681992322,"lon":-73.7083347414,"num":0,"rank":391},{"id":111030,"name":"Lower Saint Croix National Scenic Riverway","lat":45.2381187113,"lon":-92.741494233,"num":306,"rank":73},{"id":111030,"name":"Lowell National Historical Park","lat":42.6450149096,"lon":-71.3169532973,"num":0,"rank":390},{"id":111030,"name":"Longfellow National Historic Site","lat":42.3769885345,"lon":-71.1263695595,"num":0,"rank":389},{"id":111030,"name":"Little River Canyon National Preserve","lat":34.4146762277,"lon":-85.6172763475,"num":842,"rank":38},{"id":111030,"name":"Port Chicago Naval Magazine National Memorial","lat":38.056868973,"lon":-122.0301662098,"num":0,"rank":388},{"id":111030,"name":"Lincoln Home National Historic Site","lat":39.7971625189,"lon":-89.6451401845,"num":0,"rank":387},{"id":111030,"name":"Lincoln Boyhood National Memorial","lat":38.1181623985,"lon":-86.9965672885,"num":0,"rank":386},{"id":111030,"name":"Little Bighorn Battlefield National Monument","lat":45.5563248578,"lon":-107.418363956,"num":13,"rank":207},{"id":111030,"name":"Lassen Volcanic National Park","lat":40.4935031756,"lon":-121.4075835157,"num":186,"rank":100},{"id":111030,"name":"Lake Roosevelt National Recreation Area","lat":48.1771841431,"lon":-118.3294507547,"num":143,"rank":117},{"id":111030,"name":"Lake Meredith National Recreation Area","lat":35.6191720563,"lon":-101.6820554302,"num":84,"rank":137},{"id":111030,"name":"Salinas Pueblo Missions National Monument","lat":34.3539089914,"lon":-106.2047895715,"num":0,"rank":385},{"id":111030,"name":"Manzanar National Historic Site","lat":36.7255914729,"lon":-118.154717759,"num":5,"rank":247},{"id":111030,"name":"Kobuk Valley National Park","lat":67.3533681646,"lon":-159.1989090274,"num":0,"rank":384},{"id":111030,"name":"Knife River Indian Villages National Historic Site","lat":47.3539037774,"lon":-101.3857204909,"num":0,"rank":383},{"id":111030,"name":"Klondike Gold Rush National Historical Park","lat":59.6103034399,"lon":-135.261881525,"num":35,"rank":164},{"id":111030,"name":"Lake Mead National Recreation Area","lat":35.9436983441,"lon":-114.4805914667,"num":1084,"rank":24},{"id":111030,"name":"North Cascades National Park","lat":48.7112507743,"lon":-121.2055112653,"num":11,"rank":213},{"id":111030,"name":"Noatak National Preserve","lat":68.0042120491,"lon":-159.8326831495,"num":0,"rank":382},{"id":111030,"name":"Pipe Spring National Monument","lat":36.8628266405,"lon":-112.7398566811,"num":0,"rank":381},{"id":111030,"name":"Pictured Rocks National Lakeshore","lat":46.5642436774,"lon":-86.3164522423,"num":68,"rank":148},{"id":111030,"name":"Navajo National Monument","lat":36.7175261542,"lon":-110.5504299855,"num":1,"rank":292},{"id":111030,"name":"Natural Bridges National Monument","lat":37.6045310647,"lon":-110.0022585256,"num":3,"rank":265},{"id":111030,"name":"Pinnacles National Park","lat":36.4903927982,"lon":-121.1811665164,"num":3133,"rank":7},{"id":111030,"name":"Hohokam Pima National Monument","lat":33.187134851,"lon":-111.9192751852,"num":0,"rank":380},{"id":111030,"name":"Kennesaw Mountain National Battlefield Park","lat":33.9536626261,"lon":-84.5921528836,"num":3,"rank":264},{"id":111030,"name":"Lake Clark National Park","lat":60.5662095218,"lon":-153.5566660452,"num":0,"rank":379},{"id":111030,"name":"Lake Chelan National Recreation Area","lat":48.3538115092,"lon":-120.6837308918,"num":347,"rank":65},{"id":111030,"name":"Lava Beds National Monument","lat":41.7593648027,"lon":-121.5168465017,"num":181,"rank":102},{"id":111030,"name":"Kenai Fjords National Park","lat":59.8158304247,"lon":-150.1082342425,"num":24,"rank":181},{"id":111030,"name":"Katmai National Park","lat":58.6181671939,"lon":-155.0136296551,"num":1,"rank":291},{"id":111030,"name":"Kalaupapa National Historical Park","lat":21.1730837147,"lon":-156.951146717,"num":1,"rank":290},{"id":111030,"name":"John F. Kennedy Center for Performing Arts","lat":38.8959425518,"lon":-77.0555870263,"num":0,"rank":378},{"id":111030,"name":"John Fitzgerald Kennedy National Historic Site","lat":42.346936939,"lon":-71.1232384633,"num":0,"rank":377},{"id":111030,"name":"John D. Rockefeller, Jr. Memorial Parkway","lat":44.0886991354,"lon":-110.728051017,"num":0,"rank":376},{"id":111030,"name":"Niobrara National Scenic River","lat":42.7940448903,"lon":-99.9183386426,"num":16,"rank":196},{"id":111030,"name":"Niobrara and Missouri National Scenic and Recreational Rivers","lat":42.7907993538,"lon":-98.2469645258,"num":18,"rank":191},{"id":111030,"name":"Nicodemus National Historic Site","lat":39.3916803408,"lon":-99.6167983408,"num":0,"rank":375},{"id":111030,"name":"New River Gorge National River","lat":37.8686043188,"lon":-80.999513915,"num":25,"rank":178},{"id":111030,"name":"John Day Fossil Beds National Monument","lat":44.6264472089,"lon":-119.881066546,"num":4,"rank":253},{"id":111030,"name":"Jimmy Carter National Historic Site","lat":32.0306153952,"lon":-84.4160366774,"num":11,"rank":212},{"id":111030,"name":"Jefferson National Expansion Memorial","lat":38.6232898155,"lon":-90.1803944326,"num":0,"rank":374},{"id":111030,"name":"Jewel Cave National Monument","lat":43.7310275309,"lon":-103.829996958,"num":0,"rank":373},{"id":111030,"name":"Nez Perce National Historical Park","lat":46.0591888348,"lon":-115.8950888016,"num":62,"rank":153},{"id":111030,"name":"Palo Alto Battlefield National Historical Park","lat":26.0238795761,"lon":-97.4629585249,"num":5,"rank":246},{"id":111030,"name":"Joshua Tree National Park","lat":33.9139692648,"lon":-115.8397560616,"num":2669,"rank":9},{"id":111030,"name":"John Muir National Historic Site","lat":37.9828464717,"lon":-122.1326154731,"num":774,"rank":43},{"id":111030,"name":"Kings Canyon National Park","lat":36.8917133729,"lon":-118.5980774683,"num":124,"rank":123},{"id":111030,"name":"Keweenaw National Historical Park","lat":47.1791815603,"lon":-88.5227796697,"num":0,"rank":372},{"id":111030,"name":"New Bedford Whaling National Historical Park","lat":41.6356424795,"lon":-70.9232089707,"num":0,"rank":371},{"id":111030,"name":"James A. Garfield National Historic Site","lat":41.6648654811,"lon":-81.3508655708,"num":0,"rank":370},{"id":111030,"name":"Isle Royale National Park","lat":48.0109564323,"lon":-88.8284163569,"num":18,"rank":190},{"id":111030,"name":"Johnstown Flood National Memorial","lat":40.3458770543,"lon":-78.7742391094,"num":0,"rank":369},{"id":111030,"name":"International Peace Garden","lat":48.9891896753,"lon":-100.063105494,"num":3,"rank":263},{"id":111030,"name":"Indiana Dunes National Lakeshore","lat":41.639358968,"lon":-87.0941192641,"num":1127,"rank":23},{"id":111030,"name":"Jean Lafitte National Historical Park and Preserve","lat":29.817211404,"lon":-90.1399622266,"num":502,"rank":56},{"id":111030,"name":"Independence National Historical Park","lat":39.9474569267,"lon":-75.147959239,"num":3,"rank":262},{"id":111030,"name":"Illinois and Michigan Canal National Heritage Corridor","lat":41.4460491912,"lon":-88.4032810981,"num":956,"rank":33},{"id":111030,"name":"Natchez National Historical Park","lat":31.547001408,"lon":-91.3904929218,"num":0,"rank":368},{"id":111030,"name":"Ice Age National Scenic Trail","lat":43.0783676072,"lon":-89.6166437358,"num":1,"rank":289},{"id":111030,"name":"Hubbell Trading Post National Historic Site","lat":35.7072731625,"lon":-109.5599515892,"num":0,"rank":367},{"id":111030,"name":"Harry S Truman National Historic Site","lat":38.9272260899,"lon":-94.5161614584,"num":0,"rank":366},{"id":111030,"name":"Hovenweep National Monument","lat":37.3913283205,"lon":-109.004812183,"num":15,"rank":201},{"id":111030,"name":"Hot Springs National Park","lat":34.5241367423,"lon":-93.0633313493,"num":285,"rank":80},{"id":111030,"name":"Muir Woods National Monument","lat":37.8965802252,"lon":-122.5808038046,"num":107,"rank":130},{"id":111030,"name":"Honouliuli National Monument","lat":21.3881916169,"lon":-158.0575093029,"num":0,"rank":365},{"id":111030,"name":"Hopewell Furnace National Historic Site","lat":40.2060649776,"lon":-75.7681203679,"num":741,"rank":45},{"id":111030,"name":"Home of Franklin D Roosevelt National Historic Site","lat":41.7659814643,"lon":-73.9257641605,"num":6,"rank":243},{"id":111030,"name":"Roosevelt-Vanderbilt National Historic Sites","lat":41.7705561873,"lon":-73.9247866588,"num":9,"rank":221},{"id":111030,"name":"Mount Rushmore National Memorial","lat":43.8803695567,"lon":-103.4525162096,"num":3,"rank":261},{"id":111030,"name":"Hopewell Culture National Historical Park","lat":39.3159332671,"lon":-83.0804592708,"num":1,"rank":288},{"id":111030,"name":"Haleakala National Park","lat":20.7069255007,"lon":-156.159192095,"num":176,"rank":104},{"id":111030,"name":"Minidoka National Historic Site","lat":42.8214596124,"lon":-114.4777575988,"num":0,"rank":364},{"id":111030,"name":"Hamilton Grange National Memorial","lat":40.8212801901,"lon":-73.9472712259,"num":0,"rank":363},{"id":111030,"name":"Kaloko-Honokohau National Historical Park","lat":19.680823019,"lon":-156.0306881253,"num":26,"rank":177},{"id":111030,"name":"George Washington Carver National Monument","lat":36.9871320273,"lon":-94.3552273513,"num":118,"rank":126},{"id":111030,"name":"Guadalupe Mountains National Park","lat":31.9229932368,"lon":-104.8855426713,"num":128,"rank":121},{"id":111030,"name":"Gulf Islands National Seashore","lat":30.2991818506,"lon":-87.7507640686,"num":1155,"rank":20},{"id":111030,"name":"Guilford Courthouse National Military Park","lat":36.1322574585,"lon":-79.8424438607,"num":6,"rank":242},{"id":111030,"name":"Grand Portage National Monument","lat":47.9929181018,"lon":-89.7557641541,"num":0,"rank":362},{"id":111030,"name":"Grand Canyon National Park","lat":36.1721460932,"lon":-112.6845881638,"num":194,"rank":98},{"id":111030,"name":"Great Basin National Park","lat":38.9460928664,"lon":-114.2579622312,"num":228,"rank":90},{"id":111030,"name":"Golden Spike National Historic Site","lat":41.6195016486,"lon":-112.5241979795,"num":1,"rank":287},{"id":111030,"name":"Grand Teton National Park","lat":43.8181626131,"lon":-110.7054884405,"num":110,"rank":128},{"id":111030,"name":"Green Springs","lat":38.0274461831,"lon":-78.1654025897,"num":1,"rank":286},{"id":111030,"name":"George Washington Birthplace National Monument","lat":38.1930148811,"lon":-76.9233121903,"num":2,"rank":273},{"id":111030,"name":"Great Sand Dunes National Park","lat":37.7924743363,"lon":-105.5919527143,"num":29,"rank":170},{"id":111030,"name":"Governors Island National Monument","lat":40.6916144812,"lon":-74.016688518,"num":0,"rank":361},{"id":111030,"name":"Gettysburg National Military Park","lat":39.8153620679,"lon":-77.2324645004,"num":92,"rank":135},{"id":111030,"name":"Hagerman Fossil Beds National Monument","lat":42.7907206588,"lon":-114.9443026242,"num":1,"rank":285},{"id":111030,"name":"George Rogers Clark National Historical Park","lat":38.6791300651,"lon":-87.535444579,"num":0,"rank":360},{"id":111030,"name":"General Grant National Memorial","lat":40.813434356,"lon":-73.9630756731,"num":0,"rank":359},{"id":111030,"name":"Gateway National Recreation Area","lat":40.5717206258,"lon":-73.9096912774,"num":1537,"rank":14},{"id":111030,"name":"Gauley River National Recreation Area","lat":38.2061421693,"lon":-81.0042102677,"num":0,"rank":358},{"id":111030,"name":"Gates of the Arctic National Park","lat":67.7489354723,"lon":-153.3006340072,"num":302,"rank":75},{"id":111030,"name":"First State National Historical Park","lat":39.830836043,"lon":-75.5635482778,"num":306,"rank":72},{"id":111030,"name":"Homestead National Monument","lat":40.2880229314,"lon":-96.8338682633,"num":441,"rank":61},{"id":111030,"name":"Fredericksburg and Spotsylvania National Military Park","lat":38.2827617808,"lon":-77.6471093683,"num":3,"rank":260},{"id":111030,"name":"Sequoia and Kings Canyon National Parks","lat":36.7117180537,"lon":-118.5873773561,"num":625,"rank":52},{"id":111030,"name":"Pipestone National Monument","lat":44.0137418986,"lon":-96.3242589341,"num":397,"rank":63},{"id":111030,"name":"Fort Union Trading Post National Historic Site","lat":48.0014887986,"lon":-104.0378080526,"num":0,"rank":357},{"id":111030,"name":"Horseshoe Bend National Military Park","lat":32.9766876871,"lon":-85.7341361806,"num":0,"rank":356},{"id":111030,"name":"Herbert Hoover National Historic Site","lat":41.6678564557,"lon":-91.3524372446,"num":0,"rank":355},{"id":111030,"name":"Fort Vancouver National Historic Site","lat":45.6224585953,"lon":-122.6617026552,"num":201,"rank":96},{"id":111030,"name":"Fort Union National Monument","lat":35.9070059109,"lon":-105.0145186322,"num":16,"rank":195},{"id":111030,"name":"Fort Sumter National Monument","lat":32.7565442532,"lon":-79.8707089791,"num":188,"rank":99},{"id":111030,"name":"Fort Smith National Historic Site","lat":35.3883381317,"lon":-94.4312736385,"num":0,"rank":354},{"id":111030,"name":"Fort Moultrie National Monument","lat":32.757973624,"lon":-79.8573933853,"num":18,"rank":189},{"id":111030,"name":"Fort McHenry National Monument and Historic Shrine","lat":39.2639547601,"lon":-76.5804494758,"num":8,"rank":226},{"id":111030,"name":"Fort Scott National Historic Site","lat":37.8435857106,"lon":-94.7042964932,"num":0,"rank":353},{"id":111030,"name":"Fort Matanzas National Monument","lat":29.7121451214,"lon":-81.2356924408,"num":4,"rank":252},{"id":111030,"name":"Fort Caroline National Memorial","lat":30.3845883418,"lon":-81.4979879356,"num":313,"rank":71},{"id":111030,"name":"Hawaii Volcanoes National Park","lat":19.3394958866,"lon":-155.4640594098,"num":141,"rank":118},{"id":111030,"name":"Hampton National Historic Site","lat":39.4175424397,"lon":-76.5878113961,"num":6,"rank":241},{"id":111030,"name":"Fossil Butte National Monument","lat":41.8563338801,"lon":-110.7624644957,"num":0,"rank":352},{"id":111030,"name":"Fort Donelson National Battlefield","lat":36.4901986348,"lon":-87.924466938,"num":1,"rank":284},{"id":111030,"name":"El Morro National Monument","lat":35.0389588384,"lon":-108.3463983909,"num":17,"rank":192},{"id":111030,"name":"El Malpais National Monument","lat":34.8841282079,"lon":-107.9951097764,"num":9,"rank":220},{"id":111030,"name":"Fort Pulaski National Monument","lat":32.0308261603,"lon":-80.9336182582,"num":1,"rank":283},{"id":111030,"name":"Fort Point National Historic Site","lat":37.8083796094,"lon":-122.4737002227,"num":41,"rank":161},{"id":111030,"name":"Eisenhower National Historic Site","lat":39.795767559,"lon":-77.2650879484,"num":0,"rank":351},{"id":111030,"name":"Florissant Fossil Beds National Monument","lat":38.9125938314,"lon":-105.2803355399,"num":7,"rank":235},{"id":111030,"name":"Edison National Historic Site","lat":40.7854877069,"lon":-74.2381989819,"num":0,"rank":350},{"id":111030,"name":"Edgar Allan Poe National Historic Site","lat":39.9619548171,"lon":-75.1500061974,"num":0,"rank":349},{"id":111030,"name":"Ebey's Landing National Historical Reserve","lat":48.2140069349,"lon":-122.6877145621,"num":84,"rank":136},{"id":111030,"name":"First Ladies National Historic Site","lat":40.7968985688,"lon":-81.3757986948,"num":0,"rank":348},{"id":111030,"name":"Fire Island National Seashore","lat":40.6966467822,"lon":-73.0001839174,"num":11,"rank":211},{"id":111030,"name":"Effigy Mounds National Monument","lat":43.0809154261,"lon":-91.1968691883,"num":7,"rank":234},{"id":111030,"name":"Federal Hall National Memorial","lat":40.7073119221,"lon":-74.0102563575,"num":0,"rank":347},{"id":111030,"name":"Dry Tortugas National Park","lat":24.6488287579,"lon":-82.8717701235,"num":65,"rank":150},{"id":111030,"name":"Dinosaur National Monument","lat":40.5072731043,"lon":-108.9332657008,"num":168,"rank":109},{"id":111030,"name":"Fort Larned National Historic Site","lat":38.180477117,"lon":-99.2183710022,"num":2,"rank":272},{"id":111030,"name":"Fort Laramie National Historic Site","lat":42.2030276003,"lon":-104.5458975635,"num":0,"rank":346},{"id":111030,"name":"Delaware Water Gap National Recreation Area","lat":41.1264863442,"lon":-74.9482639545,"num":136,"rank":119},{"id":111030,"name":"Grant-Kohrs Ranch National Historic Site","lat":46.4135926131,"lon":-112.7466955362,"num":9,"rank":219},{"id":111030,"name":"De Soto National Memorial","lat":27.5227380058,"lon":-82.6433298455,"num":0,"rank":345},{"id":111030,"name":"Devils Postpile National Monument","lat":37.6153736115,"lon":-119.0876861111,"num":34,"rank":165},{"id":111030,"name":"Denali National Park","lat":63.2877031102,"lon":-151.0582196012,"num":336,"rank":67},{"id":111030,"name":"Fort Raleigh National Historic Site","lat":35.9368712957,"lon":-75.7120625155,"num":2,"rank":271},{"id":111030,"name":"Fort Frederica National Monument","lat":31.2214206294,"lon":-81.3945113526,"num":0,"rank":344},{"id":111030,"name":"Death Valley National Park","lat":36.4838985555,"lon":-117.1325935498,"num":2745,"rank":8},{"id":111030,"name":"Devils Tower National Monument","lat":44.590648539,"lon":-104.7156419463,"num":3,"rank":259},{"id":111030,"name":"Everglades National Park","lat":25.3721678198,"lon":-80.8818228286,"num":555,"rank":55},{"id":111030,"name":"Dayton Aviation Heritage National Historical Park","lat":39.7906545976,"lon":-84.1012019923,"num":9,"rank":218},{"id":111030,"name":"Craters of the Moon National Monument","lat":43.2023634474,"lon":-113.4788680289,"num":162,"rank":112},{"id":111030,"name":"Crater Lake National Park","lat":42.9410865803,"lon":-122.1328204721,"num":265,"rank":84},{"id":111030,"name":"Chimney Rock","lat":41.7022923845,"lon":-103.3472678443,"num":0,"rank":343},{"id":111030,"name":"Christiansted National Historic Site","lat":17.7377424348,"lon":-64.7289988901,"num":0,"rank":342},{"id":111030,"name":"Charles Pinckney National Historic Site","lat":32.845773909,"lon":-79.8248758227,"num":270,"rank":82},{"id":111030,"name":"Channel Islands National Park","lat":33.9867131515,"lon":-119.9113246962,"num":685,"rank":49},{"id":111030,"name":"Cesar E. Chavez National Monument","lat":35.2272951624,"lon":-118.5615902748,"num":76,"rank":142},{"id":111030,"name":"Colonial National Historical Park","lat":37.2284310842,"lon":-76.6202284349,"num":36,"rank":162},{"id":111030,"name":"Chiricahua National Monument","lat":32.0121418881,"lon":-109.3416124212,"num":287,"rank":78},{"id":111030,"name":"Chickasaw National Recreation Area","lat":34.4604913449,"lon":-97.0071585336,"num":0,"rank":341},{"id":111030,"name":"Cedar Breaks National Monument","lat":37.6354512091,"lon":-112.8452651283,"num":13,"rank":206},{"id":111030,"name":"Cedar Creek \u0026 Belle Grove Historical Park","lat":39.0093219893,"lon":-78.3062139027,"num":0,"rank":340},{"id":111030,"name":"Fort Necessity National Battlefield","lat":39.8130588794,"lon":-79.5903257366,"num":2,"rank":270},{"id":111030,"name":"Carter G. Woodson National Historic Site","lat":38.9108928629,"lon":-77.0243110435,"num":0,"rank":339},{"id":111030,"name":"Capulin Volcano National Monument","lat":36.7817108648,"lon":-103.9710407742,"num":270,"rank":81},{"id":111030,"name":"Carlsbad Caverns National Park","lat":32.1408676064,"lon":-104.5530066362,"num":14,"rank":203},{"id":111030,"name":"Carl Sandburg Home National Historic Site","lat":35.2681424692,"lon":-82.4510666867,"num":83,"rank":138},{"id":111030,"name":"Cane River Creole National Historical Park","lat":31.6539372549,"lon":-93.0012298499,"num":0,"rank":338},{"id":111030,"name":"City of Rocks National Reserve","lat":42.0698663898,"lon":-113.7124099305,"num":8,"rank":225},{"id":111030,"name":"Capitol Reef National Park","lat":38.1773126224,"lon":-111.1763977826,"num":35,"rank":163},{"id":111030,"name":"Canaveral National Seashore","lat":28.7862735358,"lon":-80.754145444,"num":103,"rank":132},{"id":111030,"name":"Saint Paul's Church National Historic Site","lat":40.8928351112,"lon":-73.8257727659,"num":0,"rank":337},{"id":111030,"name":"Cuyahoga Valley National Park","lat":41.2591064186,"lon":-81.570912662,"num":8173,"rank":2},{"id":111030,"name":"Cape Hatteras National Seashore","lat":35.4734085535,"lon":-75.6164706884,"num":66,"rank":149},{"id":111030,"name":"Cape Cod National Seashore","lat":41.9348627128,"lon":-70.0451298116,"num":51,"rank":155},{"id":111030,"name":"Castle Clinton National Monument","lat":40.7034779493,"lon":-74.0168055803,"num":0,"rank":336},{"id":111030,"name":"Canyon de Chelly National Monument","lat":36.1439990877,"lon":-109.336504101,"num":15,"rank":200},{"id":111030,"name":"Buck Island Reef National Monument","lat":17.8102229818,"lon":-64.6221941417,"num":0,"rank":335},{"id":111030,"name":"Buffalo National River","lat":36.0410895733,"lon":-92.9077759894,"num":116,"rank":127},{"id":111030,"name":"Fort Davis National Historic Site","lat":30.5992915647,"lon":-103.8961947248,"num":9,"rank":217},{"id":111030,"name":"Curecanti National Recreation Area","lat":38.4658289544,"lon":-107.3303634394,"num":6,"rank":240},{"id":111030,"name":"Golden Gate National Recreation Area","lat":37.7785515673,"lon":-122.5507087159,"num":9663,"rank":1},{"id":111030,"name":"Canyonlands National Park","lat":38.2451488769,"lon":-109.8800996606,"num":95,"rank":134},{"id":111030,"name":"Cumberland Island National Seashore","lat":30.8585155802,"lon":-81.4525456353,"num":7,"rank":233},{"id":111030,"name":"Charles Young Buffalo Soldiers National Monument","lat":39.7081782542,"lon":-83.8932857376,"num":0,"rank":334},{"id":111030,"name":"Booker T. Washington National Monument","lat":37.1152316341,"lon":-79.7318422136,"num":0,"rank":333},{"id":111030,"name":"Boston National Historical Park","lat":42.3697926602,"lon":-71.0553717137,"num":5,"rank":245},{"id":111030,"name":"Cumberland Gap National Historical Park","lat":36.625004236,"lon":-83.6114493852,"num":15,"rank":199},{"id":111030,"name":"Little Rock Central High School National Historic Site","lat":34.7369462354,"lon":-92.2998815779,"num":0,"rank":332},{"id":111030,"name":"Boston Harbor Islands National Recreation Area","lat":42.309171262,"lon":-70.9399616402,"num":20,"rank":188},{"id":111030,"name":"Gloria Dei (Old Swedes') Church","lat":39.9343774051,"lon":-75.1435836067,"num":0,"rank":331},{"id":111030,"name":"Flight 93 National Memorial","lat":40.0606207009,"lon":-78.8945660277,"num":33,"rank":167},{"id":111030,"name":"Casa Grande Ruins National Monument","lat":32.9970256573,"lon":-111.5325383286,"num":0,"rank":330},{"id":111030,"name":"Boston African American","lat":42.3589912279,"lon":-71.067955595,"num":0,"rank":329},{"id":111030,"name":"Bluestone National Scenic River","lat":37.5657589068,"lon":-80.9836715498,"num":14,"rank":202},{"id":111030,"name":"Cowpens National Battlefield","lat":35.1316067832,"lon":-81.8093251435,"num":77,"rank":140},{"id":111030,"name":"Brown v. Board of Education National Historic Site","lat":39.0378766462,"lon":-95.6761443658,"num":0,"rank":328},{"id":111030,"name":"Blue Ridge Parkway","lat":36.5518826019,"lon":-80.9985939398,"num":896,"rank":37},{"id":111030,"name":"Black Canyon of the Gunnison National Park","lat":38.5777750372,"lon":-107.7242615973,"num":48,"rank":157},{"id":111030,"name":"Big Thicket National Preserve","lat":30.4231828562,"lon":-94.3385322002,"num":262,"rank":85},{"id":111030,"name":"Big South Fork National River and Recreation Area","lat":36.5346688487,"lon":-84.6651192133,"num":24,"rank":180},{"id":111030,"name":"Biscayne National Park","lat":25.4904982522,"lon":-80.2102497024,"num":182,"rank":101},{"id":111030,"name":"Bryce Canyon National Park","lat":37.5838820567,"lon":-112.1827196444,"num":47,"rank":158},{"id":111030,"name":"Cape Lookout National Seashore","lat":34.8263961869,"lon":-76.3434846978,"num":3,"rank":258},{"id":111030,"name":"Coronado National Memorial","lat":31.3490049175,"lon":-110.2561542921,"num":171,"rank":107},{"id":111030,"name":"Cape Krusenstern National Monument","lat":67.4118806367,"lon":-163.5020061165,"num":0,"rank":327},{"id":111030,"name":"Assateague Island National Seashore","lat":38.0556055751,"lon":-75.2453859363,"num":162,"rank":111},{"id":111030,"name":"Fort Stanwix National Monument","lat":43.2105470824,"lon":-75.4555908832,"num":0,"rank":326},{"id":111030,"name":"Bering Land Bridge National Preserve","lat":65.9546125805,"lon":-164.4038137346,"num":337,"rank":66},{"id":111030,"name":"Benjamin Franklin","lat":39.9582155003,"lon":-75.1732214751,"num":0,"rank":325},{"id":111030,"name":"Glen Canyon National Recreation Area","lat":37.5155635115,"lon":-110.7736294846,"num":15,"rank":198},{"id":111030,"name":"Glacier Bay National Park","lat":58.797434516,"lon":-136.8381195665,"num":13,"rank":205},{"id":111030,"name":"Glacier National Park","lat":48.6831858383,"lon":-113.8001746078,"num":989,"rank":31},{"id":111030,"name":"Gila Cliff Dwellings National Monument","lat":33.2271522566,"lon":-108.270670874,"num":1,"rank":282},{"id":111030,"name":"Big Hole National Battlefield","lat":45.6469181445,"lon":-113.6501481531,"num":0,"rank":324},{"id":111030,"name":"Big Cypress National Preserve","lat":25.9704302921,"lon":-81.0811506057,"num":109,"rank":129},{"id":111030,"name":"Bighorn Canyon National Recreation Area","lat":45.0339407204,"lon":-108.2049263874,"num":0,"rank":323},{"id":111030,"name":"Big Bend National Park","lat":29.2977770156,"lon":-103.2298548718,"num":493,"rank":58},{"id":111030,"name":"Bear Paw Battlefield","lat":48.3741100905,"lon":-109.2054128337,"num":0,"rank":322},{"id":111030,"name":"Battleground National Cemetery","lat":38.9707396068,"lon":-77.0266855603,"num":0,"rank":321},{"id":111030,"name":"Bandelier National Monument","lat":35.7789082603,"lon":-106.3317686727,"num":1211,"rank":19},{"id":111030,"name":"Frederick Law Olmsted National Historic Site","lat":42.3255086738,"lon":-71.1311295693,"num":0,"rank":320},{"id":111030,"name":"Bent's Old Fort National Historic Site","lat":38.0397675619,"lon":-103.4266563574,"num":12,"rank":208},{"id":111030,"name":"Badlands National Park","lat":43.6854402012,"lon":-102.4832364387,"num":74,"rank":144},{"id":111030,"name":"Friendship Hill National Historic Site","lat":39.7754513431,"lon":-79.9252784256,"num":0,"rank":319},{"id":111030,"name":"Aztec Ruins National Monument","lat":36.8368279502,"lon":-107.999928008,"num":247,"rank":88},{"id":111030,"name":"Arkansas Post National Memorial","lat":34.0038649538,"lon":-91.3083196689,"num":41,"rank":160},{"id":111030,"name":"Appalachian National Scenic Trail","lat":40.1611451656,"lon":-76.6533554369,"num":1023,"rank":29},{"id":111030,"name":"Apostle Islands National Lakeshore","lat":46.9635061963,"lon":-90.6603661734,"num":6,"rank":239},{"id":111030,"name":"Appomattox Court House National Historical Park","lat":37.3802182183,"lon":-78.7985555283,"num":0,"rank":318},{"id":111030,"name":"Moores Creek National Battlefield","lat":34.4582226068,"lon":-78.1103135936,"num":0,"rank":317},{"id":111030,"name":"Tonto National Monument","lat":33.6484288479,"lon":-111.1135629032,"num":0,"rank":316},{"id":111030,"name":"Andrew Johnson National Historic Site","lat":36.1562633468,"lon":-82.8370636111,"num":0,"rank":315},{"id":111030,"name":"Aniakchak National Monument","lat":56.8719405208,"lon":-157.8111839257,"num":0,"rank":314},{"id":111030,"name":"Upper Delaware Scenic and Recreational River","lat":41.6610604903,"lon":-75.0382845906,"num":267,"rank":83},{"id":111030,"name":"Eugene O'Neill National Historic Site","lat":37.826044557,"lon":-122.0271566356,"num":2,"rank":269},{"id":111030,"name":"Chaco Culture National Historical Park","lat":36.0395858991,"lon":-107.9560157132,"num":2,"rank":268},{"id":111030,"name":"Chickamauga and Chattanooga National Military Park","lat":34.9431398394,"lon":-85.2874777435,"num":176,"rank":103},{"id":111030,"name":"Chattahoochee River National Recreation Area","lat":33.9965354559,"lon":-84.2903504689,"num":33,"rank":166},{"id":111030,"name":"Chamizal National Memorial","lat":31.7672963186,"lon":-106.454401126,"num":0,"rank":313},{"id":111030,"name":"Andersonville National Historic Site","lat":32.1983202961,"lon":-84.1298881574,"num":0,"rank":312},{"id":111030,"name":"Amistad National Recreation Area","lat":29.5356595804,"lon":-101.0763133914,"num":6,"rank":238},{"id":111030,"name":"Allegheny Portage Railroad National Historic Site","lat":40.4296982177,"lon":-78.5742819549,"num":0,"rank":310},{"id":111030,"name":"Eleanor Roosevelt National Historic Site","lat":41.7619625028,"lon":-73.8989165476,"num":2,"rank":267},{"id":111030,"name":"Arches National Park","lat":38.722541281,"lon":-109.5863548625,"num":317,"rank":70},{"id":111030,"name":"Castillo de San Marcos National Monument","lat":29.8978503967,"lon":-81.3121674792,"num":1,"rank":281},{"id":111030,"name":"Alagnak Wild River","lat":59.0517319364,"lon":-156.1119388139,"num":0,"rank":309},{"id":111030,"name":"Colorado National Monument","lat":39.0504325405,"lon":-108.6920652897,"num":75,"rank":143},{"id":111030,"name":"Ala Kahakai National Historic Trail","lat":19.4720179807,"lon":-155.7298217411,"num":16,"rank":194},{"id":111030,"name":"Alibates Flint Quarries National Monument","lat":35.5819671335,"lon":-101.671699019,"num":4,"rank":251},{"id":111030,"name":"Agate Fossil Beds National Monument","lat":42.4217029039,"lon":-103.7538842447,"num":26,"rank":176},{"id":111030,"name":"Rosie the Riveter/World War II Home Front National Historical Park","lat":37.9099884376,"lon":-122.360141155,"num":9,"rank":216},{"id":111030,"name":"African Burial Ground National Monument","lat":40.7145494791,"lon":-74.0043289125,"num":0,"rank":308},{"id":111030,"name":"Adams National Historical Park","lat":42.2556557769,"lon":-71.0118123888,"num":0,"rank":307},{"id":111030,"name":"Abraham Lincoln Birthplace National Historical Park","lat":37.5857138373,"lon":-85.6734464163,"num":1,"rank":280},{"id":111030,"name":"Kenilworth Park and Aquatic Gardens","lat":38.9087197848,"lon":-76.9490728374,"num":1060,"rank":27},{"id":111030,"name":"Vanderbilt Mansion National Historic Site","lat":41.7970113308,"lon":-73.9420596416,"num":1,"rank":279},{"id":111030,"name":"Tule Springs Fossil Beds National Monument","lat":36.3892869296,"lon":-115.320201135,"num":5,"rank":244},{"id":111030,"name":"White Sands National Monument","lat":32.7790275431,"lon":-106.333358958,"num":28,"rank":171},{"id":111030,"name":"Thomas Stone National Historic Site","lat":38.5293362309,"lon":-77.0378171583,"num":0,"rank":306},{"id":111030,"name":"Sleeping Bear Dunes National Lakeshore","lat":44.9278759949,"lon":-86.0270783068,"num":164,"rank":110},{"id":111030,"name":"Valley Forge National Historical Park","lat":40.1005395654,"lon":-75.4458084121,"num":207,"rank":93},{"id":111030,"name":"Sunset Crater Volcano National Monument","lat":35.3711420255,"lon":-111.510376041,"num":0,"rank":305},{"id":111030,"name":"Stones River National Battlefield","lat":35.8760702941,"lon":-86.4308043995,"num":8,"rank":224},{"id":111030,"name":"Selma to Montgomery National Historic Trail","lat":32.2708209211,"lon":-86.7282370169,"num":0,"rank":304},{"id":111030,"name":"Scotts Bluff National Monument","lat":41.8347574753,"lon":-103.7072472535,"num":31,"rank":169},{"id":111030,"name":"Thaddeus Kosciuszko National Memorial","lat":39.9434531214,"lon":-75.1473204523,"num":0,"rank":303},{"id":111030,"name":"Sagamore Hill National Historic Site","lat":40.8857581561,"lon":-73.4973634113,"num":62,"rank":152},{"id":111030,"name":"Statue Of Liberty National Monument","lat":40.6955642431,"lon":-74.0419656117,"num":4,"rank":250},{"id":111030,"name":"Saguaro National Park","lat":32.2093035404,"lon":-110.7576691175,"num":962,"rank":32},{"id":111030,"name":"Saint Croix Island International Historic Site","lat":45.1280056205,"lon":-67.1330243442,"num":0,"rank":302},{"id":111030,"name":"Saint Croix National Scenic Riverway","lat":45.9379030369,"lon":-92.2144886882,"num":76,"rank":141},{"id":111030,"name":"Rocky Mountain National Park","lat":40.3554525675,"lon":-105.6973084089,"num":936,"rank":35},{"id":111030,"name":"Perry's Victory and International Peace Memorial","lat":41.6545046606,"lon":-82.8115757808,"num":0,"rank":301},{"id":111030,"name":"River Raisin National Battlefield Park","lat":41.9128977065,"lon":-83.3762042635,"num":0,"rank":300},{"id":111030,"name":"Saint-Gaudens National Historic Site","lat":43.4991783139,"lon":-72.3745189677,"num":285,"rank":79},{"id":111030,"name":"Pea Ridge National Military Park","lat":36.4543753017,"lon":-94.0346845975,"num":0,"rank":299},{"id":111030,"name":"Petrified Forest National Park","lat":34.9836910181,"lon":-109.7877892252,"num":936,"rank":34},{"id":111030,"name":"Rainbow Bridge National Monument","lat":37.0778876287,"lon":-110.9655098716,"num":0,"rank":298},{"id":111030,"name":"Pu'uhonua o Honaunau National Historical Park","lat":19.4126558845,"lon":-155.9008799801,"num":11,"rank":210},{"id":111030,"name":"Grand Canyon-Parashant National Monument","lat":36.3600385478,"lon":-113.6415324554,"num":2,"rank":266},{"id":111030,"name":"Padre Island National Seashore","lat":27.0527813503,"lon":-97.3590170694,"num":157,"rank":113},{"id":111030,"name":"Point Reyes National Seashore","lat":38.0550606614,"lon":-122.8797850842,"num":3279,"rank":4},{"id":111030,"name":"Paterson Great Falls National Historical Park","lat":40.9158359356,"lon":-74.1802338539,"num":11,"rank":209},{"id":111030,"name":"Steamtown National Historic Site","lat":41.4075949999,"lon":-75.6703898177,"num":0,"rank":297},{"id":111030,"name":"Ozark National Scenic Riverway","lat":37.1392832529,"lon":-91.2568153567,"num":1,"rank":278},{"id":111030,"name":"Russell Cave National Monument","lat":34.9740154201,"lon":-85.8156130804,"num":7,"rank":232},{"id":111030,"name":"Ronald Reagan Boyhood Home National Historic Site","lat":41.8362324198,"lon":-89.480292243,"num":0,"rank":296}]